{
"type": "FeatureCollection",
"name": "stations_meteofrance_0-1-2+P+O20231201",
"crs": { "type": "name", "properties": { "name": "urn:ogc:def:crs:OGC:1.3:CRS84" } },
"features": [
{ "type": "Feature", "properties": { "INSEE": 1014002, "NOM": "ARBENT", "ALTITUDE": "0534 m", "TYPE": 1, "ETAT": "O", "LATITUDE": 46.2781, "LONGITUDE": 5.669 }, "geometry": { "type": "Point", "coordinates": [ 5.669, 46.2781 ] } },
{ "type": "Feature", "properties": { "INSEE": 1033002, "NOM": "BELLEGARDE", "ALTITUDE": "0350 m", "TYPE": 2, "ETAT": "O", "LATITUDE": 46.0865, "LONGITUDE": 5.8141 }, "geometry": { "type": "Point", "coordinates": [ 5.8141, 46.0865 ] } },
{ "type": "Feature", "properties": { "INSEE": 1034004, "NOM": "BELLEY", "ALTITUDE": "0330 m", "TYPE": 1, "ETAT": "O", "LATITUDE": 45.7693, "LONGITUDE": 5.688 }, "geometry": { "type": "Point", "coordinates": [ 5.688, 45.7693 ] } },
{ "type": "Feature", "properties": { "INSEE": 1064001, "NOM": "VERIZIEU", "ALTITUDE": "0281 m", "TYPE": 2, "ETAT": "O", "LATITUDE": 45.7771, "LONGITUDE": 5.4871 }, "geometry": { "type": "Point", "coordinates": [ 5.4871, 45.7771 ] } },
{ "type": "Feature", "properties": { "INSEE": 1071001, "NOM": "CESSY", "ALTITUDE": "0507 m", "TYPE": 1, "ETAT": "O", "LATITUDE": 46.3103, "LONGITUDE": 6.0803 }, "geometry": { "type": "Point", "coordinates": [ 6.0803, 46.3103 ] } },
{ "type": "Feature", "properties": { "INSEE": 1072001, "NOM": "CEYZERIAT_SAPC", "ALTITUDE": "0260 m", "TYPE": 2, "ETAT": "O", "LATITUDE": 46.2043, "LONGITUDE": 5.2876 }, "geometry": { "type": "Point", "coordinates": [ 5.2876, 46.2043 ] } },
{ "type": "Feature", "properties": { "INSEE": 1089001, "NOM": "AMBERIEU", "ALTITUDE": "0250 m", "TYPE": 0, "ETAT": "O", "LATITUDE": 45.9765, "LONGITUDE": 5.3293 }, "geometry": { "type": "Point", "coordinates": [ 5.3293, 45.9765 ] } },
{ "type": "Feature", "properties": { "INSEE": 1143002, "NOM": "DIVONNE ZA", "ALTITUDE": "0467 m", "TYPE": 2, "ETAT": "O", "LATITUDE": 46.3415, "LONGITUDE": 6.1396 }, "geometry": { "type": "Point", "coordinates": [ 6.1396, 46.3415 ] } },
{ "type": "Feature", "properties": { "INSEE": 1200002, "NOM": "LA BALME SUR CERDON_SAPC", "ALTITUDE": "0596 m", "TYPE": 2, "ETAT": "O", "LATITUDE": 46.09, "LONGITUDE": 5.482 }, "geometry": { "type": "Point", "coordinates": [ 5.482, 46.09 ] } },
{ "type": "Feature", "properties": { "INSEE": 1235001, "NOM": "MARLIEUX", "ALTITUDE": "0280 m", "TYPE": 2, "ETAT": "O", "LATITUDE": 46.0385, "LONGITUDE": 5.0443 }, "geometry": { "type": "Point", "coordinates": [ 5.0443, 46.0385 ] } },
{ "type": "Feature", "properties": { "INSEE": 1247003, "NOM": "MIJOUX", "ALTITUDE": "1002 m", "TYPE": 2, "ETAT": "O", "LATITUDE": 46.3788, "LONGITUDE": 6.0193 }, "geometry": { "type": "Point", "coordinates": [ 6.0193, 46.3788 ] } },
{ "type": "Feature", "properties": { "INSEE": 1269001, "NOM": "NANTUA", "ALTITUDE": "0483 m", "TYPE": 2, "ETAT": "O", "LATITUDE": 46.1481, "LONGITUDE": 5.6073 }, "geometry": { "type": "Point", "coordinates": [ 5.6073, 46.1481 ] } },
{ "type": "Feature", "properties": { "INSEE": 1367002, "NOM": "SAINT JULIEN SUR REYSSOUZE", "ALTITUDE": "0189 m", "TYPE": 2, "ETAT": "O", "LATITUDE": 46.4031, "LONGITUDE": 5.1098 }, "geometry": { "type": "Point", "coordinates": [ 5.1098, 46.4031 ] } },
{ "type": "Feature", "properties": { "INSEE": 1414001, "NOM": "SUTRIEU", "ALTITUDE": "0878 m", "TYPE": 1, "ETAT": "O", "LATITUDE": 45.9161, "LONGITUDE": 5.6246 }, "geometry": { "type": "Point", "coordinates": [ 5.6246, 45.9161 ] } },
{ "type": "Feature", "properties": { "INSEE": 2037002, "NOM": "AULNOIS-SS-LAON", "ALTITUDE": "0078 m", "TYPE": 1, "ETAT": "O", "LATITUDE": 49.5956, "LONGITUDE": 3.6103 }, "geometry": { "type": "Point", "coordinates": [ 3.6103, 49.5956 ] } },
{ "type": "Feature", "properties": { "INSEE": 2058001, "NOM": "BEAURIEUX", "ALTITUDE": "0056 m", "TYPE": 2, "ETAT": "O", "LATITUDE": 49.3903, "LONGITUDE": 3.7326 }, "geometry": { "type": "Point", "coordinates": [ 3.7326, 49.3903 ] } },
{ "type": "Feature", "properties": { "INSEE": 2094001, "NOM": "BLESMES", "ALTITUDE": "0222 m", "TYPE": 1, "ETAT": "O", "LATITUDE": 49.0096, "LONGITUDE": 3.4626 }, "geometry": { "type": "Point", "coordinates": [ 3.4626, 49.0096 ] } },
{ "type": "Feature", "properties": { "INSEE": 2110002, "NOM": "BRAINE", "ALTITUDE": "0061 m", "TYPE": 1, "ETAT": "O", "LATITUDE": 49.3513, "LONGITUDE": 3.527 }, "geometry": { "type": "Point", "coordinates": [ 3.527, 49.3513 ] } },
{ "type": "Feature", "properties": { "INSEE": 2173002, "NOM": "CHAUNY", "ALTITUDE": "0083 m", "TYPE": 1, "ETAT": "O", "LATITUDE": 49.6338, "LONGITUDE": 3.1978 }, "geometry": { "type": "Point", "coordinates": [ 3.1978, 49.6338 ] } },
{ "type": "Feature", "properties": { "INSEE": 2320001, "NOM": "ST QUENTIN", "ALTITUDE": "0098 m", "TYPE": 0, "ETAT": "O", "LATITUDE": 49.8183, "LONGITUDE": 3.206 }, "geometry": { "type": "Point", "coordinates": [ 3.206, 49.8183 ] } },
{ "type": "Feature", "properties": { "INSEE": 2321002, "NOM": "FONTAINE-LES-VV", "ALTITUDE": "0186 m", "TYPE": 1, "ETAT": "O", "LATITUDE": 49.8373, "LONGITUDE": 3.8778 }, "geometry": { "type": "Point", "coordinates": [ 3.8778, 49.8373 ] } },
{ "type": "Feature", "properties": { "INSEE": 2346001, "NOM": "GIZY", "ALTITUDE": "0075 m", "TYPE": 2, "ETAT": "O", "LATITUDE": 49.5998, "LONGITUDE": 3.781 }, "geometry": { "type": "Point", "coordinates": [ 3.781, 49.5998 ] } },
{ "type": "Feature", "properties": { "INSEE": 2381001, "NOM": "HIRSON", "ALTITUDE": "0165 m", "TYPE": 2, "ETAT": "O", "LATITUDE": 49.922, "LONGITUDE": 4.0771 }, "geometry": { "type": "Point", "coordinates": [ 4.0771, 49.922 ] } },
{ "type": "Feature", "properties": { "INSEE": 2471001, "NOM": "MARTIGNY-COURPI", "ALTITUDE": "0095 m", "TYPE": 2, "ETAT": "O", "LATITUDE": 49.4856, "LONGITUDE": 3.6931 }, "geometry": { "type": "Point", "coordinates": [ 3.6931, 49.4856 ] } },
{ "type": "Feature", "properties": { "INSEE": 2585001, "NOM": "PARCY-ET-TIGNY", "ALTITUDE": "0148 m", "TYPE": 2, "ETAT": "O", "LATITUDE": 49.2801, "LONGITUDE": 3.331 }, "geometry": { "type": "Point", "coordinates": [ 3.331, 49.2801 ] } },
{ "type": "Feature", "properties": { "INSEE": 2705001, "NOM": "NIZY-LE-COMTE", "ALTITUDE": "0090 m", "TYPE": 1, "ETAT": "O", "LATITUDE": 49.566, "LONGITUDE": 4.0365 }, "geometry": { "type": "Point", "coordinates": [ 4.0365, 49.566 ] } },
{ "type": "Feature", "properties": { "INSEE": 2738001, "NOM": "TERGNIER", "ALTITUDE": "0059 m", "TYPE": 2, "ETAT": "O", "LATITUDE": 49.6638, "LONGITUDE": 3.3206 }, "geometry": { "type": "Point", "coordinates": [ 3.3206, 49.6638 ] } },
{ "type": "Feature", "properties": { "INSEE": 3036002, "NOM": "BOURBON_SAPC", "ALTITUDE": "0270 m", "TYPE": 2, "ETAT": "O", "LATITUDE": 46.58, "LONGITUDE": 3.0495 }, "geometry": { "type": "Point", "coordinates": [ 3.0495, 46.58 ] } },
{ "type": "Feature", "properties": { "INSEE": 3059001, "NOM": "CHAREIL-CINTRAT_SAPC", "ALTITUDE": "0286 m", "TYPE": 2, "ETAT": "O", "LATITUDE": 46.2758, "LONGITUDE": 3.2256 }, "geometry": { "type": "Point", "coordinates": [ 3.2256, 46.2758 ] } },
{ "type": "Feature", "properties": { "INSEE": 3060001, "NOM": "VICHY-CHARMEIL", "ALTITUDE": "0249 m", "TYPE": 0, "ETAT": "O", "LATITUDE": 46.1666, "LONGITUDE": 3.3986 }, "geometry": { "type": "Point", "coordinates": [ 3.3986, 46.1666 ] } },
{ "type": "Feature", "properties": { "INSEE": 3061001, "NOM": "CHARMES_SAPC", "ALTITUDE": "0330 m", "TYPE": 2, "ETAT": "O", "LATITUDE": 46.0635, "LONGITUDE": 3.2336 }, "geometry": { "type": "Point", "coordinates": [ 3.2336, 46.0635 ] } },
{ "type": "Feature", "properties": { "INSEE": 3074001, "NOM": "CHEVAGNES", "ALTITUDE": "0228 m", "TYPE": 2, "ETAT": "O", "LATITUDE": 46.6306, "LONGITUDE": 3.5491 }, "geometry": { "type": "Point", "coordinates": [ 3.5491, 46.6306 ] } },
{ "type": "Feature", "properties": { "INSEE": 3100001, "NOM": "DIOU", "ALTITUDE": "0220 m", "TYPE": 2, "ETAT": "O", "LATITUDE": 46.5416, "LONGITUDE": 3.7066 }, "geometry": { "type": "Point", "coordinates": [ 3.7066, 46.5416 ] } },
{ "type": "Feature", "properties": { "INSEE": 3106002, "NOM": "DURDAT-LAREQUILLE", "ALTITUDE": "0500 m", "TYPE": 2, "ETAT": "O", "LATITUDE": 46.2516, "LONGITUDE": 2.6956 }, "geometry": { "type": "Point", "coordinates": [ 2.6956, 46.2516 ] } },
{ "type": "Feature", "properties": { "INSEE": 3108001, "NOM": "ECHASSIERES_SAPC", "ALTITUDE": "0650 m", "TYPE": 2, "ETAT": "O", "LATITUDE": 46.1911, "LONGITUDE": 2.9576 }, "geometry": { "type": "Point", "coordinates": [ 2.9576, 46.1911 ] } },
{ "type": "Feature", "properties": { "INSEE": 3114001, "NOM": "FERTE-HAUTERIVE", "ALTITUDE": "0226 m", "TYPE": 2, "ETAT": "O", "LATITUDE": 46.3768, "LONGITUDE": 3.331 }, "geometry": { "type": "Point", "coordinates": [ 3.331, 46.3768 ] } },
{ "type": "Feature", "properties": { "INSEE": 3125001, "NOM": "LA GUILLERMIE", "ALTITUDE": "0722 m", "TYPE": 2, "ETAT": "O", "LATITUDE": 45.9846, "LONGITUDE": 3.6398 }, "geometry": { "type": "Point", "coordinates": [ 3.6398, 45.9846 ] } },
{ "type": "Feature", "properties": { "INSEE": 3130002, "NOM": "ISLE-ET-BARDAIS", "ALTITUDE": "0260 m", "TYPE": 2, "ETAT": "O", "LATITUDE": 46.6633, "LONGITUDE": 2.7296 }, "geometry": { "type": "Point", "coordinates": [ 2.7296, 46.6633 ] } },
{ "type": "Feature", "properties": { "INSEE": 3155003, "NOM": "LURCY-LEVIS SA", "ALTITUDE": "0225 m", "TYPE": 1, "ETAT": "O", "LATITUDE": 46.7183, "LONGITUDE": 2.9476 }, "geometry": { "type": "Point", "coordinates": [ 2.9476, 46.7183 ] } },
{ "type": "Feature", "properties": { "INSEE": 3162001, "NOM": "MARIGNY", "ALTITUDE": "0240 m", "TYPE": 2, "ETAT": "O", "LATITUDE": 46.5831, "LONGITUDE": 3.1953 }, "geometry": { "type": "Point", "coordinates": [ 3.1953, 46.5831 ] } },
{ "type": "Feature", "properties": { "INSEE": 3180001, "NOM": "MONTBEUGNY", "ALTITUDE": "0275 m", "TYPE": 1, "ETAT": "O", "LATITUDE": 46.5363, "LONGITUDE": 3.4231 }, "geometry": { "type": "Point", "coordinates": [ 3.4231, 46.5363 ] } },
{ "type": "Feature", "properties": { "INSEE": 3185007, "NOM": "MONTLUCON", "ALTITUDE": "0229 m", "TYPE": 1, "ETAT": "O", "LATITUDE": 46.3551, "LONGITUDE": 2.5746 }, "geometry": { "type": "Point", "coordinates": [ 2.5746, 46.3551 ] } },
{ "type": "Feature", "properties": { "INSEE": 3204001, "NOM": "PARAY-SOUS-BRIAILLES", "ALTITUDE": "0250 m", "TYPE": 2, "ETAT": "O", "LATITUDE": 46.2835, "LONGITUDE": 3.3378 }, "geometry": { "type": "Point", "coordinates": [ 3.3378, 46.2835 ] } },
{ "type": "Feature", "properties": { "INSEE": 3226001, "NOM": "SAINT DIDIER_SAPC", "ALTITUDE": "0293 m", "TYPE": 2, "ETAT": "O", "LATITUDE": 46.3653, "LONGITUDE": 3.8501 }, "geometry": { "type": "Point", "coordinates": [ 3.8501, 46.3653 ] } },
{ "type": "Feature", "properties": { "INSEE": 3240001, "NOM": "ST-LEON", "ALTITUDE": "0378 m", "TYPE": 2, "ETAT": "O", "LATITUDE": 46.4025, "LONGITUDE": 3.6858 }, "geometry": { "type": "Point", "coordinates": [ 3.6858, 46.4025 ] } },
{ "type": "Feature", "properties": { "INSEE": 3248001, "NOM": "ST-NICOLAS", "ALTITUDE": "1022 m", "TYPE": 1, "ETAT": "O", "LATITUDE": 46.0515, "LONGITUDE": 3.8051 }, "geometry": { "type": "Point", "coordinates": [ 3.8051, 46.0515 ] } },
{ "type": "Feature", "properties": { "INSEE": 3285001, "NOM": "TORTEZAIS_SAPC", "ALTITUDE": "0256 m", "TYPE": 2, "ETAT": "O", "LATITUDE": 46.4513, "LONGITUDE": 2.857 }, "geometry": { "type": "Point", "coordinates": [ 2.857, 46.4513 ] } },
{ "type": "Feature", "properties": { "INSEE": 3310001, "NOM": "VICHY-VILLE", "ALTITUDE": "0255 m", "TYPE": 2, "ETAT": "O", "LATITUDE": 46.1176, "LONGITUDE": 3.439 }, "geometry": { "type": "Point", "coordinates": [ 3.439, 46.1176 ] } },
{ "type": "Feature", "properties": { "INSEE": 3321001, "NOM": "YZEURE", "ALTITUDE": "0242 m", "TYPE": 2, "ETAT": "O", "LATITUDE": 46.5791, "LONGITUDE": 3.3536 }, "geometry": { "type": "Point", "coordinates": [ 3.3536, 46.5791 ] } },
{ "type": "Feature", "properties": { "INSEE": 4006005, "NOM": "ALLOS_SAPC", "ALTITUDE": "1400 m", "TYPE": 2, "ETAT": "O", "LATITUDE": 44.2425, "LONGITUDE": 6.6253 }, "geometry": { "type": "Point", "coordinates": [ 6.6253, 44.2425 ] } },
{ "type": "Feature", "properties": { "INSEE": 4019001, "NOM": "BARCELONNETTE", "ALTITUDE": "1155 m", "TYPE": 1, "ETAT": "O", "LATITUDE": 44.3911, "LONGITUDE": 6.6701 }, "geometry": { "type": "Point", "coordinates": [ 6.6701, 44.3911 ] } },
{ "type": "Feature", "properties": { "INSEE": 4022001, "NOM": "BARREME", "ALTITUDE": "0743 m", "TYPE": 2, "ETAT": "O", "LATITUDE": 43.9571, "LONGITUDE": 6.3723 }, "geometry": { "type": "Point", "coordinates": [ 6.3723, 43.9571 ] } },
{ "type": "Feature", "properties": { "INSEE": 4023001, "NOM": "BAYONS", "ALTITUDE": "0893 m", "TYPE": 2, "ETAT": "O", "LATITUDE": 44.3388, "LONGITUDE": 6.174 }, "geometry": { "type": "Point", "coordinates": [ 6.174, 44.3388 ] } },
{ "type": "Feature", "properties": { "INSEE": 4024004, "NOM": "BEAUJEU ST PIERRE", "ALTITUDE": "0960 m", "TYPE": 2, "ETAT": "O", "LATITUDE": 44.2098, "LONGITUDE": 6.3851 }, "geometry": { "type": "Point", "coordinates": [ 6.3851, 44.2098 ] } },
{ "type": "Feature", "properties": { "INSEE": 4039001, "NOM": "CASTELLANE", "ALTITUDE": "0729 m", "TYPE": 2, "ETAT": "O", "LATITUDE": 43.8491, "LONGITUDE": 6.508 }, "geometry": { "type": "Point", "coordinates": [ 6.508, 43.8491 ] } },
{ "type": "Feature", "properties": { "INSEE": 4041001, "NOM": "LE CASTELLET", "ALTITUDE": "0473 m", "TYPE": 2, "ETAT": "O", "LATITUDE": 43.9383, "LONGITUDE": 5.9795 }, "geometry": { "type": "Point", "coordinates": [ 5.9795, 43.9383 ] } },
{ "type": "Feature", "properties": { "INSEE": 4049001, "NOM": "ST AUBAN", "ALTITUDE": "0458 m", "TYPE": 0, "ETAT": "O", "LATITUDE": 44.0621, "LONGITUDE": 5.9896 }, "geometry": { "type": "Point", "coordinates": [ 5.9896, 44.0621 ] } },
{ "type": "Feature", "properties": { "INSEE": 4068001, "NOM": "DAUPHIN", "ALTITUDE": "0427 m", "TYPE": 1, "ETAT": "O", "LATITUDE": 43.9098, "LONGITUDE": 5.7671 }, "geometry": { "type": "Point", "coordinates": [ 5.7671, 43.9098 ] } },
{ "type": "Feature", "properties": { "INSEE": 4070009, "NOM": "DIGNE LES BAINS", "ALTITUDE": "0554 m", "TYPE": 1, "ETAT": "O", "LATITUDE": 44.07, "LONGITUDE": 6.1866 }, "geometry": { "type": "Point", "coordinates": [ 6.1866, 44.07 ] } },
{ "type": "Feature", "properties": { "INSEE": 4096002, "NOM": "JAUSIERS-ST ANNE", "ALTITUDE": "1240 m", "TYPE": 2, "ETAT": "O", "LATITUDE": 44.4136, "LONGITUDE": 6.7251 }, "geometry": { "type": "Point", "coordinates": [ 6.7251, 44.4136 ] } },
{ "type": "Feature", "properties": { "INSEE": 4115001, "NOM": "MEAILLES_SAPC", "ALTITUDE": "1090 m", "TYPE": 2, "ETAT": "O", "LATITUDE": 44.0311, "LONGITUDE": 6.6295 }, "geometry": { "type": "Point", "coordinates": [ 6.6295, 44.0311 ] } },
{ "type": "Feature", "properties": { "INSEE": 4126001, "NOM": "MONTCLAR_SAPC", "ALTITUDE": "1197 m", "TYPE": 2, "ETAT": "O", "LATITUDE": 44.3918, "LONGITUDE": 6.3333 }, "geometry": { "type": "Point", "coordinates": [ 6.3333, 44.3918 ] } },
{ "type": "Feature", "properties": { "INSEE": 4134002, "NOM": "LA MOTTE DU CAIRE", "ALTITUDE": "0665 m", "TYPE": 2, "ETAT": "O", "LATITUDE": 44.3266, "LONGITUDE": 6.0305 }, "geometry": { "type": "Point", "coordinates": [ 6.0305, 44.3266 ] } },
{ "type": "Feature", "properties": { "INSEE": 4136001, "NOM": "LA MURE-ARGENS", "ALTITUDE": "0920 m", "TYPE": 1, "ETAT": "O", "LATITUDE": 43.977, "LONGITUDE": 6.5201 }, "geometry": { "type": "Point", "coordinates": [ 6.5201, 43.977 ] } },
{ "type": "Feature", "properties": { "INSEE": 4184001, "NOM": "ST JURS", "ALTITUDE": "0867 m", "TYPE": 2, "ETAT": "O", "LATITUDE": 43.9008, "LONGITUDE": 6.2005 }, "geometry": { "type": "Point", "coordinates": [ 6.2005, 43.9008 ] } },
{ "type": "Feature", "properties": { "INSEE": 4209005, "NOM": "SISTERON", "ALTITUDE": "0500 m", "TYPE": 2, "ETAT": "O", "LATITUDE": 44.2245, "LONGITUDE": 5.916 }, "geometry": { "type": "Point", "coordinates": [ 5.916, 44.2245 ] } },
{ "type": "Feature", "properties": { "INSEE": 4230001, "NOM": "VALENSOLE", "ALTITUDE": "0600 m", "TYPE": 1, "ETAT": "O", "LATITUDE": 43.8395, "LONGITUDE": 6.0008 }, "geometry": { "type": "Point", "coordinates": [ 6.0008, 43.8395 ] } },
{ "type": "Feature", "properties": { "INSEE": 5007003, "NOM": "ARVIEUX", "ALTITUDE": "1825 m", "TYPE": 2, "ETAT": "O", "LATITUDE": 44.796, "LONGITUDE": 6.728 }, "geometry": { "type": "Point", "coordinates": [ 6.728, 44.796 ] } },
{ "type": "Feature", "properties": { "INSEE": 5038001, "NOM": "CHATEAU-VILLE-VIEILLE", "ALTITUDE": "1355 m", "TYPE": 2, "ETAT": "O", "LATITUDE": 44.7593, "LONGITUDE": 6.809 }, "geometry": { "type": "Point", "coordinates": [ 6.809, 44.7593 ] } },
{ "type": "Feature", "properties": { "INSEE": 5046001, "NOM": "EMBRUN", "ALTITUDE": "0873 m", "TYPE": 0, "ETAT": "O", "LATITUDE": 44.5711, "LONGITUDE": 6.5086 }, "geometry": { "type": "Point", "coordinates": [ 6.5086, 44.5711 ] } },
{ "type": "Feature", "properties": { "INSEE": 5055001, "NOM": "LA FAURIE", "ALTITUDE": "0825 m", "TYPE": 2, "ETAT": "O", "LATITUDE": 44.5666, "LONGITUDE": 5.7501 }, "geometry": { "type": "Point", "coordinates": [ 5.7501, 44.5666 ] } },
{ "type": "Feature", "properties": { "INSEE": 5061009, "NOM": "GAP", "ALTITUDE": "0885 m", "TYPE": 2, "ETAT": "O", "LATITUDE": 44.5776, "LONGITUDE": 6.0798 }, "geometry": { "type": "Point", "coordinates": [ 6.0798, 44.5776 ] } },
{ "type": "Feature", "properties": { "INSEE": 5070003, "NOM": "LARAGNE MONTEGLIN", "ALTITUDE": "0565 m", "TYPE": 1, "ETAT": "O", "LATITUDE": 44.3191, "LONGITUDE": 5.7945 }, "geometry": { "type": "Point", "coordinates": [ 5.7945, 44.3191 ] } },
{ "type": "Feature", "properties": { "INSEE": 5090002, "NOM": "MOTTE-MOLINES", "ALTITUDE": "1250 m", "TYPE": 2, "ETAT": "O", "LATITUDE": 44.7481, "LONGITUDE": 6.1228 }, "geometry": { "type": "Point", "coordinates": [ 6.1228, 44.7481 ] } },
{ "type": "Feature", "properties": { "INSEE": 5120002, "NOM": "RISTOLAS", "ALTITUDE": "1670 m", "TYPE": 1, "ETAT": "O", "LATITUDE": 44.7656, "LONGITUDE": 6.9845 }, "geometry": { "type": "Point", "coordinates": [ 6.9845, 44.7656 ] } },
{ "type": "Feature", "properties": { "INSEE": 5126001, "NOM": "ROSANS", "ALTITUDE": "0625 m", "TYPE": 2, "ETAT": "O", "LATITUDE": 44.3875, "LONGITUDE": 5.4621 }, "geometry": { "type": "Point", "coordinates": [ 5.4621, 44.3875 ] } },
{ "type": "Feature", "properties": { "INSEE": 5136002, "NOM": "ST CREPIN", "ALTITUDE": "0906 m", "TYPE": 1, "ETAT": "O", "LATITUDE": 44.7045, "LONGITUDE": 6.6 }, "geometry": { "type": "Point", "coordinates": [ 6.6, 44.7045 ] } },
{ "type": "Feature", "properties": { "INSEE": 5139006, "NOM": "AGNIERES-EN-DEVOLUY", "ALTITUDE": "1244 m", "TYPE": 2, "ETAT": "O", "LATITUDE": 44.6961, "LONGITUDE": 5.8808 }, "geometry": { "type": "Point", "coordinates": [ 5.8808, 44.6961 ] } },
{ "type": "Feature", "properties": { "INSEE": 5142001, "NOM": "ST FIRMIN", "ALTITUDE": "0935 m", "TYPE": 2, "ETAT": "O", "LATITUDE": 44.7825, "LONGITUDE": 6.035 }, "geometry": { "type": "Point", "coordinates": [ 6.035, 44.7825 ] } },
{ "type": "Feature", "properties": { "INSEE": 5145002, "NOM": "ST JEAN-ST-NICOLAS", "ALTITUDE": "1210 m", "TYPE": 1, "ETAT": "O", "LATITUDE": 44.6708, "LONGITUDE": 6.2098 }, "geometry": { "type": "Point", "coordinates": [ 6.2098, 44.6708 ] } },
{ "type": "Feature", "properties": { "INSEE": 5158001, "NOM": "LE SAIX", "ALTITUDE": "0801 m", "TYPE": 2, "ETAT": "O", "LATITUDE": 44.4758, "LONGITUDE": 5.8155 }, "geometry": { "type": "Point", "coordinates": [ 5.8155, 44.4758 ] } },
{ "type": "Feature", "properties": { "INSEE": 5170001, "NOM": "TALLARD", "ALTITUDE": "0593 m", "TYPE": 1, "ETAT": "O", "LATITUDE": 44.4521, "LONGITUDE": 6.0333 }, "geometry": { "type": "Point", "coordinates": [ 6.0333, 44.4521 ] } },
{ "type": "Feature", "properties": { "INSEE": 5179001, "NOM": "VEYNES", "ALTITUDE": "0823 m", "TYPE": 2, "ETAT": "O", "LATITUDE": 44.5363, "LONGITUDE": 5.8406 }, "geometry": { "type": "Point", "coordinates": [ 5.8406, 44.5363 ] } },
{ "type": "Feature", "properties": { "INSEE": 5181002, "NOM": "VILLAR D'ARENE", "ALTITUDE": "1665 m", "TYPE": 1, "ETAT": "O", "LATITUDE": 45.0308, "LONGITUDE": 6.3616 }, "geometry": { "type": "Point", "coordinates": [ 6.3616, 45.0308 ] } },
{ "type": "Feature", "properties": { "INSEE": 5182001, "NOM": "VILLAR LOUBIERE", "ALTITUDE": "1072 m", "TYPE": 2, "ETAT": "O", "LATITUDE": 44.8268, "LONGITUDE": 6.146 }, "geometry": { "type": "Point", "coordinates": [ 6.146, 44.8268 ] } },
{ "type": "Feature", "properties": { "INSEE": 5183001, "NOM": "VILLAR ST PANCRACE", "ALTITUDE": "1310 m", "TYPE": 0, "ETAT": "O", "LATITUDE": 44.8803, "LONGITUDE": 6.6403 }, "geometry": { "type": "Point", "coordinates": [ 6.6403, 44.8803 ] } },
{ "type": "Feature", "properties": { "INSEE": 6004002, "NOM": "ANTIBES-GAROUPE", "ALTITUDE": "0075 m", "TYPE": 2, "ETAT": "O", "LATITUDE": 43.5646, "LONGITUDE": 7.133 }, "geometry": { "type": "Point", "coordinates": [ 7.133, 43.5646 ] } },
{ "type": "Feature", "properties": { "INSEE": 6004004, "NOM": "ANTIBES-GOLF", "ALTITUDE": "0013 m", "TYPE": 2, "ETAT": "O", "LATITUDE": 43.5796, "LONGITUDE": 7.0911 }, "geometry": { "type": "Point", "coordinates": [ 7.0911, 43.5796 ] } },
{ "type": "Feature", "properties": { "INSEE": 6004009, "NOM": "ANTIBES_SAPC", "ALTITUDE": "0032 m", "TYPE": 2, "ETAT": "O", "LATITUDE": 43.5991, "LONGITUDE": 7.1111 }, "geometry": { "type": "Point", "coordinates": [ 7.1111, 43.5991 ] } },
{ "type": "Feature", "properties": { "INSEE": 6005001, "NOM": "ASCROS", "ALTITUDE": "1173 m", "TYPE": 1, "ETAT": "O", "LATITUDE": 43.922, "LONGITUDE": 7.0136 }, "geometry": { "type": "Point", "coordinates": [ 7.0136, 43.922 ] } },
{ "type": "Feature", "properties": { "INSEE": 6016001, "NOM": "BEUIL-OBS", "ALTITUDE": "1464 m", "TYPE": 2, "ETAT": "O", "LATITUDE": 44.0898, "LONGITUDE": 6.988 }, "geometry": { "type": "Point", "coordinates": [ 6.988, 44.0898 ] } },
{ "type": "Feature", "properties": { "INSEE": 6023004, "NOM": "BREIL SUR ROYA", "ALTITUDE": "0305 m", "TYPE": 2, "ETAT": "O", "LATITUDE": 43.9401, "LONGITUDE": 7.5136 }, "geometry": { "type": "Point", "coordinates": [ 7.5136, 43.9401 ] } },
{ "type": "Feature", "properties": { "INSEE": 6029001, "NOM": "CANNES", "ALTITUDE": "0002 m", "TYPE": 0, "ETAT": "O", "LATITUDE": 43.5565, "LONGITUDE": 6.9505 }, "geometry": { "type": "Point", "coordinates": [ 6.9505, 43.5565 ] } },
{ "type": "Feature", "properties": { "INSEE": 6033002, "NOM": "CARROS_SAPC", "ALTITUDE": "0078 m", "TYPE": 2, "ETAT": "O", "LATITUDE": 43.7863, "LONGITUDE": 7.2095 }, "geometry": { "type": "Point", "coordinates": [ 7.2095, 43.7863 ] } },
{ "type": "Feature", "properties": { "INSEE": 6037002, "NOM": "CAUSSOLS", "ALTITUDE": "1268 m", "TYPE": 2, "ETAT": "O", "LATITUDE": 43.7523, "LONGITUDE": 6.9231 }, "geometry": { "type": "Point", "coordinates": [ 6.9231, 43.7523 ] } },
{ "type": "Feature", "properties": { "INSEE": 6038001, "NOM": "CHATEAUNEUF GRASSE", "ALTITUDE": "0388 m", "TYPE": 2, "ETAT": "O", "LATITUDE": 43.6736, "LONGITUDE": 6.991 }, "geometry": { "type": "Point", "coordinates": [ 6.991, 43.6736 ] } },
{ "type": "Feature", "properties": { "INSEE": 6050002, "NOM": "COURSEGOULES_SAPC", "ALTITUDE": "0985 m", "TYPE": 2, "ETAT": "O", "LATITUDE": 43.792, "LONGITUDE": 7.0485 }, "geometry": { "type": "Point", "coordinates": [ 7.0485, 43.792 ] } },
{ "type": "Feature", "properties": { "INSEE": 6059003, "NOM": "EZE", "ALTITUDE": "0704 m", "TYPE": 2, "ETAT": "O", "LATITUDE": 43.7388, "LONGITUDE": 7.3658 }, "geometry": { "type": "Point", "coordinates": [ 7.3658, 43.7388 ] } },
{ "type": "Feature", "properties": { "INSEE": 6071001, "NOM": "GUILLAUMES-OBS", "ALTITUDE": "0788 m", "TYPE": 2, "ETAT": "O", "LATITUDE": 44.0906, "LONGITUDE": 6.8523 }, "geometry": { "type": "Point", "coordinates": [ 6.8523, 44.0906 ] } },
{ "type": "Feature", "properties": { "INSEE": 6073005, "NOM": "ISOLA 2000", "ALTITUDE": "1912 m", "TYPE": 2, "ETAT": "O", "LATITUDE": 44.1895, "LONGITUDE": 7.149 }, "geometry": { "type": "Point", "coordinates": [ 7.149, 44.1895 ] } },
{ "type": "Feature", "properties": { "INSEE": 6074005, "NOM": "LANTOSQUE_SAPC", "ALTITUDE": "0550 m", "TYPE": 2, "ETAT": "O", "LATITUDE": 43.972, "LONGITUDE": 7.307 }, "geometry": { "type": "Point", "coordinates": [ 7.307, 43.972 ] } },
{ "type": "Feature", "properties": { "INSEE": 6075007, "NOM": "LEVENS", "ALTITUDE": "0691 m", "TYPE": 2, "ETAT": "O", "LATITUDE": 43.8463, "LONGITUDE": 7.21 }, "geometry": { "type": "Point", "coordinates": [ 7.21, 43.8463 ] } },
{ "type": "Feature", "properties": { "INSEE": 6077006, "NOM": "PEIRA CAVA", "ALTITUDE": "1443 m", "TYPE": 1, "ETAT": "O", "LATITUDE": 43.9291, "LONGITUDE": 7.3633 }, "geometry": { "type": "Point", "coordinates": [ 7.3633, 43.9291 ] } },
{ "type": "Feature", "properties": { "INSEE": 6079002, "NOM": "MANDELIEU LA NAPOULE_SAPC", "ALTITUDE": "0104 m", "TYPE": 2, "ETAT": "O", "LATITUDE": 43.5236, "LONGITUDE": 6.8986 }, "geometry": { "type": "Point", "coordinates": [ 6.8986, 43.5236 ] } },
{ "type": "Feature", "properties": { "INSEE": 6081001, "NOM": "LE MAS", "ALTITUDE": "1525 m", "TYPE": 1, "ETAT": "O", "LATITUDE": 43.8136, "LONGITUDE": 6.8093 }, "geometry": { "type": "Point", "coordinates": [ 6.8093, 43.8136 ] } },
{ "type": "Feature", "properties": { "INSEE": 6083005, "NOM": "MENTON", "ALTITUDE": "0216 m", "TYPE": 2, "ETAT": "O", "LATITUDE": 43.7858, "LONGITUDE": 7.4886 }, "geometry": { "type": "Point", "coordinates": [ 7.4886, 43.7858 ] } },
{ "type": "Feature", "properties": { "INSEE": 6086001, "NOM": "MOULINET", "ALTITUDE": "0817 m", "TYPE": 2, "ETAT": "O", "LATITUDE": 43.942, "LONGITUDE": 7.4146 }, "geometry": { "type": "Point", "coordinates": [ 7.4146, 43.942 ] } },
{ "type": "Feature", "properties": { "INSEE": 6088001, "NOM": "NICE", "ALTITUDE": "0002 m", "TYPE": 0, "ETAT": "O", "LATITUDE": 43.6488, "LONGITUDE": 7.209 }, "geometry": { "type": "Point", "coordinates": [ 7.209, 43.6488 ] } },
{ "type": "Feature", "properties": { "INSEE": 6088007, "NOM": "NICE-RIMIEZ", "ALTITUDE": "0238 m", "TYPE": 2, "ETAT": "O", "LATITUDE": 43.7386, "LONGITUDE": 7.2791 }, "geometry": { "type": "Point", "coordinates": [ 7.2791, 43.7386 ] } },
{ "type": "Feature", "properties": { "INSEE": 6090002, "NOM": "PEGOMAS", "ALTITUDE": "0109 m", "TYPE": 2, "ETAT": "O", "LATITUDE": 43.6026, "LONGITUDE": 6.9366 }, "geometry": { "type": "Point", "coordinates": [ 6.9366, 43.6026 ] } },
{ "type": "Feature", "properties": { "INSEE": 6091003, "NOM": "PEILLE", "ALTITUDE": "1106 m", "TYPE": 1, "ETAT": "O", "LATITUDE": 43.7751, "LONGITUDE": 7.4283 }, "geometry": { "type": "Point", "coordinates": [ 7.4283, 43.7751 ] } },
{ "type": "Feature", "properties": { "INSEE": 6094002, "NOM": "PEONE", "ALTITUDE": "1784 m", "TYPE": 1, "ETAT": "O", "LATITUDE": 44.0996, "LONGITUDE": 6.9308 }, "geometry": { "type": "Point", "coordinates": [ 6.9308, 44.0996 ] } },
{ "type": "Feature", "properties": { "INSEE": 6099004, "NOM": "PUGET THENIERS_SAPC", "ALTITUDE": "0449 m", "TYPE": 2, "ETAT": "O", "LATITUDE": 43.9568, "LONGITUDE": 6.8923 }, "geometry": { "type": "Point", "coordinates": [ 6.8923, 43.9568 ] } },
{ "type": "Feature", "properties": { "INSEE": 6102001, "NOM": "RIMPLAS_SAPC", "ALTITUDE": "1130 m", "TYPE": 2, "ETAT": "O", "LATITUDE": 44.0671, "LONGITUDE": 7.1335 }, "geometry": { "type": "Point", "coordinates": [ 7.1335, 44.0671 ] } },
{ "type": "Feature", "properties": { "INSEE": 6103002, "NOM": "BERTHEMONT-LES-BAINS_SAPC", "ALTITUDE": "0938 m", "TYPE": 2, "ETAT": "O", "LATITUDE": 44.0443, "LONGITUDE": 7.3008 }, "geometry": { "type": "Point", "coordinates": [ 7.3008, 44.0443 ] } },
{ "type": "Feature", "properties": { "INSEE": 6118002, "NOM": "ST CEZAIRE SUR SIAGNE", "ALTITUDE": "0694 m", "TYPE": 1, "ETAT": "O", "LATITUDE": 43.6786, "LONGITUDE": 6.809 }, "geometry": { "type": "Point", "coordinates": [ 6.809, 43.6786 ] } },
{ "type": "Feature", "properties": { "INSEE": 6120004, "NOM": "ST ETIENNE DE TINEE_SAPC", "ALTITUDE": "1150 m", "TYPE": 2, "ETAT": "O", "LATITUDE": 44.2576, "LONGITUDE": 6.9211 }, "geometry": { "type": "Point", "coordinates": [ 6.9211, 44.2576 ] } },
{ "type": "Feature", "properties": { "INSEE": 6125001, "NOM": "ST MARTIN D'ENTRAUNES_SAPC", "ALTITUDE": "1642 m", "TYPE": 2, "ETAT": "O", "LATITUDE": 44.1546, "LONGITUDE": 6.747 }, "geometry": { "type": "Point", "coordinates": [ 6.747, 44.1546 ] } },
{ "type": "Feature", "properties": { "INSEE": 6136005, "NOM": "SOSPEL", "ALTITUDE": "0843 m", "TYPE": 1, "ETAT": "O", "LATITUDE": 43.8628, "LONGITUDE": 7.4336 }, "geometry": { "type": "Point", "coordinates": [ 7.4336, 43.8628 ] } },
{ "type": "Feature", "properties": { "INSEE": 6152002, "NOM": "VALBONNE-SOPHIA", "ALTITUDE": "0238 m", "TYPE": 2, "ETAT": "O", "LATITUDE": 43.6231, "LONGITUDE": 7.0285 }, "geometry": { "type": "Point", "coordinates": [ 7.0285, 43.6231 ] } },
{ "type": "Feature", "properties": { "INSEE": 6163001, "NOM": "TENDE-OBS", "ALTITUDE": "0792 m", "TYPE": 2, "ETAT": "O", "LATITUDE": 44.0866, "LONGITUDE": 7.595 }, "geometry": { "type": "Point", "coordinates": [ 7.595, 44.0866 ] } },
{ "type": "Feature", "properties": { "INSEE": 6163007, "NOM": "TENDE_SAPC", "ALTITUDE": "0636 m", "TYPE": 2, "ETAT": "O", "LATITUDE": 44.0431, "LONGITUDE": 7.586 }, "geometry": { "type": "Point", "coordinates": [ 7.586, 44.0431 ] } },
{ "type": "Feature", "properties": { "INSEE": 7005001, "NOM": "ALBA LA ROMAINE", "ALTITUDE": "0223 m", "TYPE": 2, "ETAT": "O", "LATITUDE": 44.5398, "LONGITUDE": 4.5825 }, "geometry": { "type": "Point", "coordinates": [ 4.5825, 44.5398 ] } },
{ "type": "Feature", "properties": { "INSEE": 7010001, "NOM": "ANNONAY", "ALTITUDE": "0336 m", "TYPE": 2, "ETAT": "O", "LATITUDE": 45.2461, "LONGITUDE": 4.6705 }, "geometry": { "type": "Point", "coordinates": [ 4.6705, 45.2461 ] } },
{ "type": "Feature", "properties": { "INSEE": 7011002, "NOM": "ANTRAIGUES", "ALTITUDE": "0428 m", "TYPE": 2, "ETAT": "O", "LATITUDE": 44.7191, "LONGITUDE": 4.3521 }, "geometry": { "type": "Point", "coordinates": [ 4.3521, 44.7191 ] } },
{ "type": "Feature", "properties": { "INSEE": 7019005, "NOM": "AUBENAS SA", "ALTITUDE": "0176 m", "TYPE": 2, "ETAT": "O", "LATITUDE": 44.6016, "LONGITUDE": 4.4098 }, "geometry": { "type": "Point", "coordinates": [ 4.4098, 44.6016 ] } },
{ "type": "Feature", "properties": { "INSEE": 7025001, "NOM": "BARNAS RAD", "ALTITUDE": "0480 m", "TYPE": 1, "ETAT": "O", "LATITUDE": 44.666, "LONGITUDE": 4.1598 }, "geometry": { "type": "Point", "coordinates": [ 4.1598, 44.666 ] } },
{ "type": "Feature", "properties": { "INSEE": 7032002, "NOM": "BERZEME RAD", "ALTITUDE": "0650 m", "TYPE": 1, "ETAT": "O", "LATITUDE": 44.6283, "LONGITUDE": 4.5663 }, "geometry": { "type": "Point", "coordinates": [ 4.5663, 44.6283 ] } },
{ "type": "Feature", "properties": { "INSEE": 7033001, "NOM": "BESSAS", "ALTITUDE": "0251 m", "TYPE": 2, "ETAT": "O", "LATITUDE": 44.34, "LONGITUDE": 4.2986 }, "geometry": { "type": "Point", "coordinates": [ 4.2986, 44.34 ] } },
{ "type": "Feature", "properties": { "INSEE": 7064001, "NOM": "CHEYLARD SA", "ALTITUDE": "0418 m", "TYPE": 2, "ETAT": "O", "LATITUDE": 44.9148, "LONGITUDE": 4.4375 }, "geometry": { "type": "Point", "coordinates": [ 4.4375, 44.9148 ] } },
{ "type": "Feature", "properties": { "INSEE": 7066001, "NOM": "CHOMERAC SA_RCE", "ALTITUDE": "0216 m", "TYPE": 2, "ETAT": "O", "LATITUDE": 44.6995, "LONGITUDE": 4.6483 }, "geometry": { "type": "Point", "coordinates": [ 4.6483, 44.6995 ] } },
{ "type": "Feature", "properties": { "INSEE": 7068001, "NOM": "COLOMBIER JEUNE RAD", "ALTITUDE": "0566 m", "TYPE": 1, "ETAT": "O", "LATITUDE": 45.0155, "LONGITUDE": 4.6711 }, "geometry": { "type": "Point", "coordinates": [ 4.6711, 45.0155 ] } },
{ "type": "Feature", "properties": { "INSEE": 7075001, "NOM": "CROS GEORAND", "ALTITUDE": "1021 m", "TYPE": 2, "ETAT": "O", "LATITUDE": 44.7801, "LONGITUDE": 4.0996 }, "geometry": { "type": "Point", "coordinates": [ 4.0996, 44.7801 ] } },
{ "type": "Feature", "properties": { "INSEE": 7096001, "NOM": "GLUIRAS RAD", "ALTITUDE": "0760 m", "TYPE": 1, "ETAT": "O", "LATITUDE": 44.8393, "LONGITUDE": 4.524 }, "geometry": { "type": "Point", "coordinates": [ 4.524, 44.8393 ] } },
{ "type": "Feature", "properties": { "INSEE": 7099001, "NOM": "GRAS", "ALTITUDE": "0341 m", "TYPE": 2, "ETAT": "O", "LATITUDE": 44.429, "LONGITUDE": 4.5655 }, "geometry": { "type": "Point", "coordinates": [ 4.5655, 44.429 ] } },
{ "type": "Feature", "properties": { "INSEE": 7101001, "NOM": "GROSPIERRES", "ALTITUDE": "0127 m", "TYPE": 2, "ETAT": "O", "LATITUDE": 44.4113, "LONGITUDE": 4.3008 }, "geometry": { "type": "Point", "coordinates": [ 4.3008, 44.4113 ] } },
{ "type": "Feature", "properties": { "INSEE": 7105001, "NOM": "ISSANLAS", "ALTITUDE": "1215 m", "TYPE": 2, "ETAT": "O", "LATITUDE": 44.7731, "LONGITUDE": 3.9816 }, "geometry": { "type": "Point", "coordinates": [ 3.9816, 44.7731 ] } },
{ "type": "Feature", "properties": { "INSEE": 7105003, "NOM": "ISSANLAS_SAPC", "ALTITUDE": "1264 m", "TYPE": 2, "ETAT": "O", "LATITUDE": 44.7555, "LONGITUDE": 3.9753 }, "geometry": { "type": "Point", "coordinates": [ 3.9753, 44.7555 ] } },
{ "type": "Feature", "properties": { "INSEE": 7117002, "NOM": "LABLACHERE", "ALTITUDE": "0295 m", "TYPE": 2, "ETAT": "O", "LATITUDE": 44.4808, "LONGITUDE": 4.2083 }, "geometry": { "type": "Point", "coordinates": [ 4.2083, 44.4808 ] } },
{ "type": "Feature", "properties": { "INSEE": 7128001, "NOM": "LALOUVESC", "ALTITUDE": "1090 m", "TYPE": 2, "ETAT": "O", "LATITUDE": 45.1178, "LONGITUDE": 4.535 }, "geometry": { "type": "Point", "coordinates": [ 4.535, 45.1178 ] } },
{ "type": "Feature", "properties": { "INSEE": 7131001, "NOM": "LANAS SYN", "ALTITUDE": "0265 m", "TYPE": 0, "ETAT": "O", "LATITUDE": 44.5371, "LONGITUDE": 4.3681 }, "geometry": { "type": "Point", "coordinates": [ 4.3681, 44.5371 ] } },
{ "type": "Feature", "properties": { "INSEE": 7153001, "NOM": "MAYRES", "ALTITUDE": "0579 m", "TYPE": 2, "ETAT": "O", "LATITUDE": 44.6671, "LONGITUDE": 4.113 }, "geometry": { "type": "Point", "coordinates": [ 4.113, 44.6671 ] } },
{ "type": "Feature", "properties": { "INSEE": 7154005, "NOM": "MAZAN ABBAYE RAD", "ALTITUDE": "1240 m", "TYPE": 1, "ETAT": "O", "LATITUDE": 44.7338, "LONGITUDE": 4.0838 }, "geometry": { "type": "Point", "coordinates": [ 4.0838, 44.7338 ] } },
{ "type": "Feature", "properties": { "INSEE": 7159001, "NOM": "MIRABEL SA", "ALTITUDE": "0275 m", "TYPE": 2, "ETAT": "O", "LATITUDE": 44.5815, "LONGITUDE": 4.4973 }, "geometry": { "type": "Point", "coordinates": [ 4.4973, 44.5815 ] } },
{ "type": "Feature", "properties": { "INSEE": 7161001, "NOM": "MONTPEZAT SA", "ALTITUDE": "0602 m", "TYPE": 2, "ETAT": "O", "LATITUDE": 44.7156, "LONGITUDE": 4.207 }, "geometry": { "type": "Point", "coordinates": [ 4.207, 44.7156 ] } },
{ "type": "Feature", "properties": { "INSEE": 7168001, "NOM": "ORGNAC AVEN", "ALTITUDE": "0230 m", "TYPE": 2, "ETAT": "O", "LATITUDE": 44.2883, "LONGITUDE": 4.4216 }, "geometry": { "type": "Point", "coordinates": [ 4.4216, 44.2883 ] } },
{ "type": "Feature", "properties": { "INSEE": 7172002, "NOM": "PEAUGRES RAD", "ALTITUDE": "0480 m", "TYPE": 1, "ETAT": "O", "LATITUDE": 45.2861, "LONGITUDE": 4.7058 }, "geometry": { "type": "Point", "coordinates": [ 4.7058, 45.2861 ] } },
{ "type": "Feature", "properties": { "INSEE": 7187001, "NOM": "CROIX MILLET", "ALTITUDE": "0779 m", "TYPE": 1, "ETAT": "O", "LATITUDE": 44.6063, "LONGITUDE": 4.2413 }, "geometry": { "type": "Point", "coordinates": [ 4.2413, 44.6063 ] } },
{ "type": "Feature", "properties": { "INSEE": 7202002, "NOM": "SABLIERES OARA", "ALTITUDE": "0540 m", "TYPE": 2, "ETAT": "O", "LATITUDE": 44.533, "LONGITUDE": 4.0725 }, "geometry": { "type": "Point", "coordinates": [ 4.0725, 44.533 ] } },
{ "type": "Feature", "properties": { "INSEE": 7204008, "NOM": "ST-AGREVE RAD", "ALTITUDE": "1014 m", "TYPE": 1, "ETAT": "O", "LATITUDE": 44.9978, "LONGITUDE": 4.368 }, "geometry": { "type": "Point", "coordinates": [ 4.368, 44.9978 ] } },
{ "type": "Feature", "properties": { "INSEE": 7232001, "NOM": "ST-ETIENNE LUGDARES", "ALTITUDE": "1022 m", "TYPE": 2, "ETAT": "O", "LATITUDE": 44.6513, "LONGITUDE": 3.9485 }, "geometry": { "type": "Point", "coordinates": [ 3.9485, 44.6513 ] } },
{ "type": "Feature", "properties": { "INSEE": 7240001, "NOM": "ST-GEORGES BAIN", "ALTITUDE": "0112 m", "TYPE": 2, "ETAT": "O", "LATITUDE": 44.8603, "LONGITUDE": 4.8325 }, "geometry": { "type": "Point", "coordinates": [ 4.8325, 44.8603 ] } },
{ "type": "Feature", "properties": { "INSEE": 7261001, "NOM": "ST-LAURENT PAPE", "ALTITUDE": "0112 m", "TYPE": 2, "ETAT": "O", "LATITUDE": 44.8178, "LONGITUDE": 4.7468 }, "geometry": { "type": "Point", "coordinates": [ 4.7468, 44.8178 ] } },
{ "type": "Feature", "properties": { "INSEE": 7279001, "NOM": "ST-MONTAN", "ALTITUDE": "0130 m", "TYPE": 2, "ETAT": "O", "LATITUDE": 44.4418, "LONGITUDE": 4.6363 }, "geometry": { "type": "Point", "coordinates": [ 4.6363, 44.4418 ] } },
{ "type": "Feature", "properties": { "INSEE": 7315004, "NOM": "LA SOUCHE", "ALTITUDE": "0924 m", "TYPE": 2, "ETAT": "O", "LATITUDE": 44.6285, "LONGITUDE": 4.1236 }, "geometry": { "type": "Point", "coordinates": [ 4.1236, 44.6285 ] } },
{ "type": "Feature", "properties": { "INSEE": 7334004, "NOM": "LES VANS-SA", "ALTITUDE": "0140 m", "TYPE": 2, "ETAT": "O", "LATITUDE": 44.4155, "LONGITUDE": 4.1508 }, "geometry": { "type": "Point", "coordinates": [ 4.1508, 44.4155 ] } },
{ "type": "Feature", "properties": { "INSEE": 7338001, "NOM": "VERNOUX", "ALTITUDE": "0561 m", "TYPE": 2, "ETAT": "O", "LATITUDE": 44.8995, "LONGITUDE": 4.6523 }, "geometry": { "type": "Point", "coordinates": [ 4.6523, 44.8995 ] } },
{ "type": "Feature", "properties": { "INSEE": 7347001, "NOM": "VOCANCE", "ALTITUDE": "0529 m", "TYPE": 2, "ETAT": "O", "LATITUDE": 45.2011, "LONGITUDE": 4.5543 }, "geometry": { "type": "Point", "coordinates": [ 4.5543, 45.2011 ] } },
{ "type": "Feature", "properties": { "INSEE": 8046001, "NOM": "BANOGNE-RECOUVRANCE", "ALTITUDE": "0130 m", "TYPE": 2, "ETAT": "O", "LATITUDE": 49.5716, "LONGITUDE": 4.1291 }, "geometry": { "type": "Point", "coordinates": [ 4.1291, 49.5716 ] } },
{ "type": "Feature", "properties": { "INSEE": 8089003, "NOM": "BUZANCY_SAPC", "ALTITUDE": "0199 m", "TYPE": 2, "ETAT": "O", "LATITUDE": 49.4273, "LONGITUDE": 4.9645 }, "geometry": { "type": "Point", "coordinates": [ 4.9645, 49.4273 ] } },
{ "type": "Feature", "properties": { "INSEE": 8105005, "NOM": "CHARLEVILLE-MEZ", "ALTITUDE": "0145 m", "TYPE": 0, "ETAT": "O", "LATITUDE": 49.7828, "LONGITUDE": 4.6431 }, "geometry": { "type": "Point", "coordinates": [ 4.6431, 49.7828 ] } },
{ "type": "Feature", "properties": { "INSEE": 8116001, "NOM": "LE CHESNE", "ALTITUDE": "0168 m", "TYPE": 2, "ETAT": "O", "LATITUDE": 49.5116, "LONGITUDE": 4.7675 }, "geometry": { "type": "Point", "coordinates": [ 4.7675, 49.5116 ] } },
{ "type": "Feature", "properties": { "INSEE": 8145001, "NOM": "DOUZY", "ALTITUDE": "0153 m", "TYPE": 1, "ETAT": "O", "LATITUDE": 49.658, "LONGITUDE": 5.0398 }, "geometry": { "type": "Point", "coordinates": [ 5.0398, 49.658 ] } },
{ "type": "Feature", "properties": { "INSEE": 8207001, "NOM": "HAM-SUR-MEUSE", "ALTITUDE": "0109 m", "TYPE": 2, "ETAT": "O", "LATITUDE": 50.116, "LONGITUDE": 4.7795 }, "geometry": { "type": "Point", "coordinates": [ 4.7795, 50.116 ] } },
{ "type": "Feature", "properties": { "INSEE": 8239001, "NOM": "JUNIVILLE", "ALTITUDE": "0090 m", "TYPE": 2, "ETAT": "O", "LATITUDE": 49.3973, "LONGITUDE": 4.3716 }, "geometry": { "type": "Point", "coordinates": [ 4.3716, 49.3973 ] } },
{ "type": "Feature", "properties": { "INSEE": 8244001, "NOM": "LAMETZ_SAPC", "ALTITUDE": "0165 m", "TYPE": 2, "ETAT": "O", "LATITUDE": 49.5366, "LONGITUDE": 4.6896 }, "geometry": { "type": "Point", "coordinates": [ 4.6896, 49.5366 ] } },
{ "type": "Feature", "properties": { "INSEE": 8248002, "NOM": "LAUNOIS-SUR-VENCE_SAPC", "ALTITUDE": "0218 m", "TYPE": 2, "ETAT": "O", "LATITUDE": 49.6718, "LONGITUDE": 4.5346 }, "geometry": { "type": "Point", "coordinates": [ 4.5346, 49.6718 ] } },
{ "type": "Feature", "properties": { "INSEE": 8254002, "NOM": "LIART_SAPC", "ALTITUDE": "0240 m", "TYPE": 2, "ETAT": "O", "LATITUDE": 49.7655, "LONGITUDE": 4.3403 }, "geometry": { "type": "Point", "coordinates": [ 4.3403, 49.7655 ] } },
{ "type": "Feature", "properties": { "INSEE": 8255001, "NOM": "LINAY", "ALTITUDE": "0177 m", "TYPE": 2, "ETAT": "O", "LATITUDE": 49.6168, "LONGITUDE": 5.2168 }, "geometry": { "type": "Point", "coordinates": [ 5.2168, 49.6168 ] } },
{ "type": "Feature", "properties": { "INSEE": 8296002, "NOM": "MONTCHEUTIN_SAPC", "ALTITUDE": "0142 m", "TYPE": 2, "ETAT": "O", "LATITUDE": 49.2873, "LONGITUDE": 4.8096 }, "geometry": { "type": "Point", "coordinates": [ 4.8096, 49.2873 ] } },
{ "type": "Feature", "properties": { "INSEE": 8353001, "NOM": "RANCENNES", "ALTITUDE": "0162 m", "TYPE": 1, "ETAT": "O", "LATITUDE": 50.1188, "LONGITUDE": 4.8131 }, "geometry": { "type": "Point", "coordinates": [ 4.8131, 50.1188 ] } },
{ "type": "Feature", "properties": { "INSEE": 8367002, "NOM": "ROCROI", "ALTITUDE": "0382 m", "TYPE": 1, "ETAT": "O", "LATITUDE": 49.9186, "LONGITUDE": 4.53 }, "geometry": { "type": "Point", "coordinates": [ 4.53, 49.9186 ] } },
{ "type": "Feature", "properties": { "INSEE": 8401001, "NOM": "SAULCES-CHAMPENOISES", "ALTITUDE": "0147 m", "TYPE": 1, "ETAT": "O", "LATITUDE": 49.4238, "LONGITUDE": 4.4925 }, "geometry": { "type": "Point", "coordinates": [ 4.4925, 49.4238 ] } },
{ "type": "Feature", "properties": { "INSEE": 8419001, "NOM": "SIGNY-L'ABBAYE", "ALTITUDE": "0180 m", "TYPE": 2, "ETAT": "O", "LATITUDE": 49.686, "LONGITUDE": 4.4188 }, "geometry": { "type": "Point", "coordinates": [ 4.4188, 49.686 ] } },
{ "type": "Feature", "properties": { "INSEE": 8420002, "NOM": "SIGNY-LE-PETIT_SAPC", "ALTITUDE": "0309 m", "TYPE": 2, "ETAT": "O", "LATITUDE": 49.9135, "LONGITUDE": 4.2881 }, "geometry": { "type": "Point", "coordinates": [ 4.2881, 49.9135 ] } },
{ "type": "Feature", "properties": { "INSEE": 9023002, "NOM": "ASCOU LAVAIL", "ALTITUDE": "1100 m", "TYPE": 2, "ETAT": "O", "LATITUDE": 42.7238, "LONGITUDE": 1.8951 }, "geometry": { "type": "Point", "coordinates": [ 1.8951, 42.7238 ] } },
{ "type": "Feature", "properties": { "INSEE": 9024004, "NOM": "ASTON", "ALTITUDE": "1781 m", "TYPE": 1, "ETAT": "O", "LATITUDE": 42.7241, "LONGITUDE": 1.691 }, "geometry": { "type": "Point", "coordinates": [ 1.691, 42.7241 ] } },
{ "type": "Feature", "properties": { "INSEE": 9027001, "NOM": "AUGIREIN", "ALTITUDE": "0655 m", "TYPE": 2, "ETAT": "O", "LATITUDE": 42.9301, "LONGITUDE": 0.92 }, "geometry": { "type": "Point", "coordinates": [ 0.92, 42.9301 ] } },
{ "type": "Feature", "properties": { "INSEE": 9047001, "NOM": "BELESTA", "ALTITUDE": "0490 m", "TYPE": 2, "ETAT": "O", "LATITUDE": 42.9038, "LONGITUDE": 1.9366 }, "geometry": { "type": "Point", "coordinates": [ 1.9366, 42.9038 ] } },
{ "type": "Feature", "properties": { "INSEE": 9094001, "NOM": "CERIZOLS", "ALTITUDE": "0374 m", "TYPE": 2, "ETAT": "O", "LATITUDE": 43.126, "LONGITUDE": 1.063 }, "geometry": { "type": "Point", "coordinates": [ 1.063, 43.126 ] } },
{ "type": "Feature", "properties": { "INSEE": 9099001, "NOM": "COS", "ALTITUDE": "0519 m", "TYPE": 1, "ETAT": "O", "LATITUDE": 42.9701, "LONGITUDE": 1.5645 }, "geometry": { "type": "Point", "coordinates": [ 1.5645, 42.9701 ] } },
{ "type": "Feature", "properties": { "INSEE": 9161003, "NOM": "LERAN", "ALTITUDE": "0391 m", "TYPE": 1, "ETAT": "O", "LATITUDE": 42.9903, "LONGITUDE": 1.9191 }, "geometry": { "type": "Point", "coordinates": [ 1.9191, 42.9903 ] } },
{ "type": "Feature", "properties": { "INSEE": 9181003, "NOM": "LE MAS D AZIL", "ALTITUDE": "0293 m", "TYPE": 2, "ETAT": "O", "LATITUDE": 43.0735, "LONGITUDE": 1.3576 }, "geometry": { "type": "Point", "coordinates": [ 1.3576, 43.0735 ] } },
{ "type": "Feature", "properties": { "INSEE": 9199002, "NOM": "MONTAUT", "ALTITUDE": "0295 m", "TYPE": 1, "ETAT": "O", "LATITUDE": 43.1921, "LONGITUDE": 1.6435 }, "geometry": { "type": "Point", "coordinates": [ 1.6435, 43.1921 ] } },
{ "type": "Feature", "properties": { "INSEE": 9225005, "NOM": "PAMIERS VILLE", "ALTITUDE": "0283 m", "TYPE": 2, "ETAT": "O", "LATITUDE": 43.1188, "LONGITUDE": 1.607 }, "geometry": { "type": "Point", "coordinates": [ 1.607, 43.1188 ] } },
{ "type": "Feature", "properties": { "INSEE": 9289001, "NOM": "ST GIRONS", "ALTITUDE": "0414 m", "TYPE": 0, "ETAT": "O", "LATITUDE": 43.0053, "LONGITUDE": 1.1068 }, "geometry": { "type": "Point", "coordinates": [ 1.1068, 43.0053 ] } },
{ "type": "Feature", "properties": { "INSEE": 9301001, "NOM": "SOULAN", "ALTITUDE": "0638 m", "TYPE": 2, "ETAT": "O", "LATITUDE": 42.9146, "LONGITUDE": 1.2343 }, "geometry": { "type": "Point", "coordinates": [ 1.2343, 42.9146 ] } },
{ "type": "Feature", "properties": { "INSEE": 9328001, "NOM": "VERDUN", "ALTITUDE": "0550 m", "TYPE": 2, "ETAT": "O", "LATITUDE": 42.7916, "LONGITUDE": 1.69 }, "geometry": { "type": "Point", "coordinates": [ 1.69, 42.7916 ] } },
{ "type": "Feature", "properties": { "INSEE": 10002001, "NOM": "AILLEVILLE_SAPC", "ALTITUDE": "0195 m", "TYPE": 2, "ETAT": "O", "LATITUDE": 48.2541, "LONGITUDE": 4.6856 }, "geometry": { "type": "Point", "coordinates": [ 4.6856, 48.2541 ] } },
{ "type": "Feature", "properties": { "INSEE": 10021001, "NOM": "AVANT-LES-RAMERUPT", "ALTITUDE": "0118 m", "TYPE": 2, "ETAT": "O", "LATITUDE": 48.4513, "LONGITUDE": 4.2836 }, "geometry": { "type": "Point", "coordinates": [ 4.2836, 48.4513 ] } },
{ "type": "Feature", "properties": { "INSEE": 10030001, "NOM": "TROYES-BARBEREY", "ALTITUDE": "0112 m", "TYPE": 0, "ETAT": "O", "LATITUDE": 48.3246, "LONGITUDE": 4.02 }, "geometry": { "type": "Point", "coordinates": [ 4.02, 48.3246 ] } },
{ "type": "Feature", "properties": { "INSEE": 10042001, "NOM": "BERULLE", "ALTITUDE": "0146 m", "TYPE": 2, "ETAT": "O", "LATITUDE": 48.179, "LONGITUDE": 3.6633 }, "geometry": { "type": "Point", "coordinates": [ 3.6633, 48.179 ] } },
{ "type": "Feature", "properties": { "INSEE": 10057001, "NOM": "BOUY-SUR-ORVIN", "ALTITUDE": "0102 m", "TYPE": 1, "ETAT": "O", "LATITUDE": 48.4398, "LONGITUDE": 3.5048 }, "geometry": { "type": "Point", "coordinates": [ 3.5048, 48.4398 ] } },
{ "type": "Feature", "properties": { "INSEE": 10070001, "NOM": "CELLES-SUR-OURCE", "ALTITUDE": "0275 m", "TYPE": 1, "ETAT": "O", "LATITUDE": 48.0675, "LONGITUDE": 4.4113 }, "geometry": { "type": "Point", "coordinates": [ 4.4113, 48.0675 ] } },
{ "type": "Feature", "properties": { "INSEE": 10099002, "NOM": "CHESSY-LES-PRES_SAPC", "ALTITUDE": "0119 m", "TYPE": 2, "ETAT": "O", "LATITUDE": 48.0255, "LONGITUDE": 3.915 }, "geometry": { "type": "Point", "coordinates": [ 3.915, 48.0255 ] } },
{ "type": "Feature", "properties": { "INSEE": 10119001, "NOM": "CUNFIN_SAPC", "ALTITUDE": "0315 m", "TYPE": 2, "ETAT": "O", "LATITUDE": 48.0365, "LONGITUDE": 4.6785 }, "geometry": { "type": "Point", "coordinates": [ 4.6785, 48.0365 ] } },
{ "type": "Feature", "properties": { "INSEE": 10130001, "NOM": "DOSNON", "ALTITUDE": "0115 m", "TYPE": 2, "ETAT": "O", "LATITUDE": 48.6091, "LONGITUDE": 4.2246 }, "geometry": { "type": "Point", "coordinates": [ 4.2246, 48.6091 ] } },
{ "type": "Feature", "properties": { "INSEE": 10166002, "NOM": "GRANDES-CHAPELL", "ALTITUDE": "0111 m", "TYPE": 2, "ETAT": "O", "LATITUDE": 48.4681, "LONGITUDE": 4.0168 }, "geometry": { "type": "Point", "coordinates": [ 4.0168, 48.4681 ] } },
{ "type": "Feature", "properties": { "INSEE": 10228002, "NOM": "MATHAUX-ETAPE", "ALTITUDE": "0145 m", "TYPE": 1, "ETAT": "O", "LATITUDE": 48.3531, "LONGITUDE": 4.4723 }, "geometry": { "type": "Point", "coordinates": [ 4.4723, 48.3531 ] } },
{ "type": "Feature", "properties": { "INSEE": 10238001, "NOM": "MESNIL-ST-PERE", "ALTITUDE": "0142 m", "TYPE": 2, "ETAT": "O", "LATITUDE": 48.2448, "LONGITUDE": 4.3221 }, "geometry": { "type": "Point", "coordinates": [ 4.3221, 48.2448 ] } },
{ "type": "Feature", "properties": { "INSEE": 10241001, "NOM": "METZ-ROBERT_SAPC", "ALTITUDE": "0140 m", "TYPE": 2, "ETAT": "O", "LATITUDE": 48.0745, "LONGITUDE": 4.1011 }, "geometry": { "type": "Point", "coordinates": [ 4.1011, 48.0745 ] } },
{ "type": "Feature", "properties": { "INSEE": 10261001, "NOM": "MUSSY-SUR-SEINE", "ALTITUDE": "0193 m", "TYPE": 2, "ETAT": "O", "LATITUDE": 47.9838, "LONGITUDE": 4.4958 }, "geometry": { "type": "Point", "coordinates": [ 4.4958, 47.9838 ] } },
{ "type": "Feature", "properties": { "INSEE": 10323001, "NOM": "ROMILLY", "ALTITUDE": "0077 m", "TYPE": 2, "ETAT": "O", "LATITUDE": 48.5033, "LONGITUDE": 3.7495 }, "geometry": { "type": "Point", "coordinates": [ 3.7495, 48.5033 ] } },
{ "type": "Feature", "properties": { "INSEE": 10350001, "NOM": "ST-MARDS", "ALTITUDE": "0227 m", "TYPE": 1, "ETAT": "O", "LATITUDE": 48.1698, "LONGITUDE": 3.789 }, "geometry": { "type": "Point", "coordinates": [ 3.789, 48.1698 ] } },
{ "type": "Feature", "properties": { "INSEE": 10372001, "NOM": "SOULAINES", "ALTITUDE": "0138 m", "TYPE": 2, "ETAT": "O", "LATITUDE": 48.3993, "LONGITUDE": 4.6713 }, "geometry": { "type": "Point", "coordinates": [ 4.6713, 48.3993 ] } },
{ "type": "Feature", "properties": { "INSEE": 10401001, "NOM": "VENDEUVRE-SUR-B", "ALTITUDE": "0180 m", "TYPE": 2, "ETAT": "O", "LATITUDE": 48.233, "LONGITUDE": 4.463 }, "geometry": { "type": "Point", "coordinates": [ 4.463, 48.233 ] } },
{ "type": "Feature", "properties": { "INSEE": 10419001, "NOM": "VILLEMOYENNE", "ALTITUDE": "0134 m", "TYPE": 2, "ETAT": "O", "LATITUDE": 48.1785, "LONGITUDE": 4.2338 }, "geometry": { "type": "Point", "coordinates": [ 4.2338, 48.1785 ] } },
{ "type": "Feature", "properties": { "INSEE": 11004001, "NOM": "ALAIGNE", "ALTITUDE": "0293 m", "TYPE": 2, "ETAT": "O", "LATITUDE": 43.1125, "LONGITUDE": 2.0983 }, "geometry": { "type": "Point", "coordinates": [ 2.0983, 43.1125 ] } },
{ "type": "Feature", "properties": { "INSEE": 11012001, "NOM": "ARGELIERS", "ALTITUDE": "0031 m", "TYPE": 2, "ETAT": "O", "LATITUDE": 43.3081, "LONGITUDE": 2.9116 }, "geometry": { "type": "Point", "coordinates": [ 2.9116, 43.3081 ] } },
{ "type": "Feature", "properties": { "INSEE": 11015001, "NOM": "ARQUES", "ALTITUDE": "0350 m", "TYPE": 2, "ETAT": "O", "LATITUDE": 42.9518, "LONGITUDE": 2.3748 }, "geometry": { "type": "Point", "coordinates": [ 2.3748, 42.9518 ] } },
{ "type": "Feature", "properties": { "INSEE": 11016003, "NOM": "ARQUETTES-EN-VAL", "ALTITUDE": "0240 m", "TYPE": 2, "ETAT": "O", "LATITUDE": 43.1008, "LONGITUDE": 2.5033 }, "geometry": { "type": "Point", "coordinates": [ 2.5033, 43.1008 ] } },
{ "type": "Feature", "properties": { "INSEE": 11028001, "NOM": "BELCAIRE", "ALTITUDE": "0980 m", "TYPE": 2, "ETAT": "O", "LATITUDE": 42.8195, "LONGITUDE": 1.9681 }, "geometry": { "type": "Point", "coordinates": [ 1.9681, 42.8195 ] } },
{ "type": "Feature", "properties": { "INSEE": 11069001, "NOM": "CARCASSONNE", "ALTITUDE": "0128 m", "TYPE": 0, "ETAT": "O", "LATITUDE": 43.2153, "LONGITUDE": 2.2955 }, "geometry": { "type": "Point", "coordinates": [ 2.2955, 43.2153 ] } },
{ "type": "Feature", "properties": { "INSEE": 11076001, "NOM": "CASTELNAUDARY", "ALTITUDE": "0160 m", "TYPE": 2, "ETAT": "O", "LATITUDE": 43.3053, "LONGITUDE": 1.9491 }, "geometry": { "type": "Point", "coordinates": [ 1.9491, 43.3053 ] } },
{ "type": "Feature", "properties": { "INSEE": 11081003, "NOM": "CAUNES-MINERVOIS", "ALTITUDE": "0371 m", "TYPE": 2, "ETAT": "O", "LATITUDE": 43.3343, "LONGITUDE": 2.481 }, "geometry": { "type": "Point", "coordinates": [ 2.481, 43.3343 ] } },
{ "type": "Feature", "properties": { "INSEE": 11124003, "NOM": "DURBAN-CORBIERES", "ALTITUDE": "0120 m", "TYPE": 2, "ETAT": "O", "LATITUDE": 42.9931, "LONGITUDE": 2.8191 }, "geometry": { "type": "Point", "coordinates": [ 2.8191, 42.9931 ] } },
{ "type": "Feature", "properties": { "INSEE": 11136001, "NOM": "FANJEAUX_SAPC", "ALTITUDE": "0182 m", "TYPE": 2, "ETAT": "O", "LATITUDE": 43.202, "LONGITUDE": 2.07 }, "geometry": { "type": "Point", "coordinates": [ 2.07, 43.202 ] } },
{ "type": "Feature", "properties": { "INSEE": 11144001, "NOM": "FITOU", "ALTITUDE": "0009 m", "TYPE": 2, "ETAT": "O", "LATITUDE": 42.8946, "LONGITUDE": 2.9958 }, "geometry": { "type": "Point", "coordinates": [ 2.9958, 42.8946 ] } },
{ "type": "Feature", "properties": { "INSEE": 11159002, "NOM": "RIBOUISSE", "ALTITUDE": "0302 m", "TYPE": 2, "ETAT": "O", "LATITUDE": 43.1828, "LONGITUDE": 1.8958 }, "geometry": { "type": "Point", "coordinates": [ 1.8958, 43.1828 ] } },
{ "type": "Feature", "properties": { "INSEE": 11168001, "NOM": "GRANES", "ALTITUDE": "0420 m", "TYPE": 1, "ETAT": "O", "LATITUDE": 42.9091, "LONGITUDE": 2.2505 }, "geometry": { "type": "Point", "coordinates": [ 2.2505, 42.9091 ] } },
{ "type": "Feature", "properties": { "INSEE": 11181002, "NOM": "LABECEDE LAURAGAIS_SAPC", "ALTITUDE": "0408 m", "TYPE": 2, "ETAT": "O", "LATITUDE": 43.3895, "LONGITUDE": 2.0221 }, "geometry": { "type": "Point", "coordinates": [ 2.0221, 43.3895 ] } },
{ "type": "Feature", "properties": { "INSEE": 11185001, "NOM": "LAGRASSE", "ALTITUDE": "0130 m", "TYPE": 2, "ETAT": "O", "LATITUDE": 43.0915, "LONGITUDE": 2.6218 }, "geometry": { "type": "Point", "coordinates": [ 2.6218, 43.0915 ] } },
{ "type": "Feature", "properties": { "INSEE": 11202001, "NOM": "LEUCATE", "ALTITUDE": "0042 m", "TYPE": 0, "ETAT": "O", "LATITUDE": 42.9173, "LONGITUDE": 3.0596 }, "geometry": { "type": "Point", "coordinates": [ 3.0596, 42.9173 ] } },
{ "type": "Feature", "properties": { "INSEE": 11203004, "NOM": "LEZIGNAN-CORBIERES", "ALTITUDE": "0060 m", "TYPE": 1, "ETAT": "O", "LATITUDE": 43.173, "LONGITUDE": 2.7288 }, "geometry": { "type": "Point", "coordinates": [ 2.7288, 43.173 ] } },
{ "type": "Feature", "properties": { "INSEE": 11206003, "NOM": "LIMOUX", "ALTITUDE": "0230 m", "TYPE": 2, "ETAT": "O", "LATITUDE": 43.046, "LONGITUDE": 2.2011 }, "geometry": { "type": "Point", "coordinates": [ 2.2011, 43.046 ] } },
{ "type": "Feature", "properties": { "INSEE": 11221004, "NOM": "LES MARTYS", "ALTITUDE": "0760 m", "TYPE": 1, "ETAT": "O", "LATITUDE": 43.4085, "LONGITUDE": 2.2923 }, "geometry": { "type": "Point", "coordinates": [ 2.2923, 43.4085 ] } },
{ "type": "Feature", "properties": { "INSEE": 11253001, "NOM": "MONTOLIEU", "ALTITUDE": "0280 m", "TYPE": 2, "ETAT": "O", "LATITUDE": 43.3126, "LONGITUDE": 2.2405 }, "geometry": { "type": "Point", "coordinates": [ 2.2405, 43.3126 ] } },
{ "type": "Feature", "properties": { "INSEE": 11260002, "NOM": "MOUTHOUMET", "ALTITUDE": "0538 m", "TYPE": 1, "ETAT": "O", "LATITUDE": 42.9595, "LONGITUDE": 2.529 }, "geometry": { "type": "Point", "coordinates": [ 2.529, 42.9595 ] } },
{ "type": "Feature", "properties": { "INSEE": 11262005, "NOM": "NARBONNE", "ALTITUDE": "0110 m", "TYPE": 1, "ETAT": "O", "LATITUDE": 43.1503, "LONGITUDE": 2.956 }, "geometry": { "type": "Point", "coordinates": [ 2.956, 43.1503 ] } },
{ "type": "Feature", "properties": { "INSEE": 11266001, "NOM": "PORT-LA-NOUVELLE", "ALTITUDE": "0000 m", "TYPE": 2, "ETAT": "O", "LATITUDE": 43.0145, "LONGITUDE": 3.0525 }, "geometry": { "type": "Point", "coordinates": [ 3.0525, 43.0145 ] } },
{ "type": "Feature", "properties": { "INSEE": 11412001, "NOM": "VILLARDEBELLE_SAPC", "ALTITUDE": "0593 m", "TYPE": 2, "ETAT": "O", "LATITUDE": 43.0148, "LONGITUDE": 2.4005 }, "geometry": { "type": "Point", "coordinates": [ 2.4005, 43.0148 ] } },
{ "type": "Feature", "properties": { "INSEE": 12005001, "NOM": "ALPUECH", "ALTITUDE": "1107 m", "TYPE": 1, "ETAT": "O", "LATITUDE": 44.756, "LONGITUDE": 2.8681 }, "geometry": { "type": "Point", "coordinates": [ 2.8681, 44.756 ] } },
{ "type": "Feature", "properties": { "INSEE": 12011001, "NOM": "ARVIEU", "ALTITUDE": "0733 m", "TYPE": 2, "ETAT": "O", "LATITUDE": 44.1676, "LONGITUDE": 2.6188 }, "geometry": { "type": "Point", "coordinates": [ 2.6188, 44.1676 ] } },
{ "type": "Feature", "properties": { "INSEE": 12014001, "NOM": "AURELLE-VERLAC_SAPC", "ALTITUDE": "1076 m", "TYPE": 2, "ETAT": "O", "LATITUDE": 44.5335, "LONGITUDE": 3.0076 }, "geometry": { "type": "Point", "coordinates": [ 3.0076, 44.5335 ] } },
{ "type": "Feature", "properties": { "INSEE": 12039001, "NOM": "BRUSQUE_SAPC", "ALTITUDE": "0858 m", "TYPE": 2, "ETAT": "O", "LATITUDE": 43.7495, "LONGITUDE": 2.9386 }, "geometry": { "type": "Point", "coordinates": [ 2.9386, 43.7495 ] } },
{ "type": "Feature", "properties": { "INSEE": 12050001, "NOM": "CANET-DE-SALARS_SAPC", "ALTITUDE": "0860 m", "TYPE": 2, "ETAT": "O", "LATITUDE": 44.2335, "LONGITUDE": 2.7371 }, "geometry": { "type": "Point", "coordinates": [ 2.7371, 44.2335 ] } },
{ "type": "Feature", "properties": { "INSEE": 12063003, "NOM": "MILLAU-LARZAC_SAPC", "ALTITUDE": "0794 m", "TYPE": 2, "ETAT": "O", "LATITUDE": 43.987, "LONGITUDE": 3.1818 }, "geometry": { "type": "Point", "coordinates": [ 3.1818, 43.987 ] } },
{ "type": "Feature", "properties": { "INSEE": 12068001, "NOM": "COLOMBIES", "ALTITUDE": "0647 m", "TYPE": 2, "ETAT": "O", "LATITUDE": 44.3578, "LONGITUDE": 2.3171 }, "geometry": { "type": "Point", "coordinates": [ 2.3171, 44.3578 ] } },
{ "type": "Feature", "properties": { "INSEE": 12077002, "NOM": "CORNUS", "ALTITUDE": "0718 m", "TYPE": 1, "ETAT": "O", "LATITUDE": 43.9223, "LONGITUDE": 3.1921 }, "geometry": { "type": "Point", "coordinates": [ 3.1921, 43.9223 ] } },
{ "type": "Feature", "properties": { "INSEE": 12092001, "NOM": "DURENQUE_SAPC", "ALTITUDE": "0812 m", "TYPE": 2, "ETAT": "O", "LATITUDE": 44.1118, "LONGITUDE": 2.6445 }, "geometry": { "type": "Point", "coordinates": [ 2.6445, 44.1118 ] } },
{ "type": "Feature", "properties": { "INSEE": 12094002, "NOM": "ENTRAYGUES SUR", "ALTITUDE": "0264 m", "TYPE": 2, "ETAT": "O", "LATITUDE": 44.6358, "LONGITUDE": 2.5596 }, "geometry": { "type": "Point", "coordinates": [ 2.5596, 44.6358 ] } },
{ "type": "Feature", "properties": { "INSEE": 12096001, "NOM": "ESPALION", "ALTITUDE": "0359 m", "TYPE": 2, "ETAT": "O", "LATITUDE": 44.5095, "LONGITUDE": 2.7686 }, "geometry": { "type": "Point", "coordinates": [ 2.7686, 44.5095 ] } },
{ "type": "Feature", "properties": { "INSEE": 12145001, "NOM": "MILLAU", "ALTITUDE": "0712 m", "TYPE": 0, "ETAT": "O", "LATITUDE": 44.1185, "LONGITUDE": 3.0195 }, "geometry": { "type": "Point", "coordinates": [ 3.0195, 44.1185 ] } },
{ "type": "Feature", "properties": { "INSEE": 12150001, "NOM": "MONTEILS", "ALTITUDE": "0268 m", "TYPE": 2, "ETAT": "O", "LATITUDE": 44.2656, "LONGITUDE": 1.9916 }, "geometry": { "type": "Point", "coordinates": [ 1.9916, 44.2656 ] } },
{ "type": "Feature", "properties": { "INSEE": 12154003, "NOM": "MONTLAUR", "ALTITUDE": "0374 m", "TYPE": 1, "ETAT": "O", "LATITUDE": 43.8916, "LONGITUDE": 2.8363 }, "geometry": { "type": "Point", "coordinates": [ 2.8363, 43.8916 ] } },
{ "type": "Feature", "properties": { "INSEE": 12179001, "NOM": "PEUX-ET-COUFFOULEUX_SAPC", "ALTITUDE": "0830 m", "TYPE": 2, "ETAT": "O", "LATITUDE": 43.7618, "LONGITUDE": 2.8671 }, "geometry": { "type": "Point", "coordinates": [ 2.8671, 43.7618 ] } },
{ "type": "Feature", "properties": { "INSEE": 12189001, "NOM": "PRADINAS_SAPC", "ALTITUDE": "0564 m", "TYPE": 2, "ETAT": "O", "LATITUDE": 44.2421, "LONGITUDE": 2.2558 }, "geometry": { "type": "Point", "coordinates": [ 2.2558, 44.2421 ] } },
{ "type": "Feature", "properties": { "INSEE": 12216001, "NOM": "ST-COME-D'OLT", "ALTITUDE": "0380 m", "TYPE": 1, "ETAT": "O", "LATITUDE": 44.5146, "LONGITUDE": 2.8278 }, "geometry": { "type": "Point", "coordinates": [ 2.8278, 44.5146 ] } },
{ "type": "Feature", "properties": { "INSEE": 12224001, "NOM": "ST-GENIEZ-D'OLT", "ALTITUDE": "0420 m", "TYPE": 2, "ETAT": "O", "LATITUDE": 44.4636, "LONGITUDE": 2.9676 }, "geometry": { "type": "Point", "coordinates": [ 2.9676, 44.4636 ] } },
{ "type": "Feature", "properties": { "INSEE": 12253001, "NOM": "SALLES CURAN", "ALTITUDE": "0959 m", "TYPE": 2, "ETAT": "O", "LATITUDE": 44.1518, "LONGITUDE": 2.8661 }, "geometry": { "type": "Point", "coordinates": [ 2.8661, 44.1518 ] } },
{ "type": "Feature", "properties": { "INSEE": 12254001, "NOM": "RODEZ-AVEYRON", "ALTITUDE": "0578 m", "TYPE": 0, "ETAT": "O", "LATITUDE": 44.4103, "LONGITUDE": 2.4825 }, "geometry": { "type": "Point", "coordinates": [ 2.4825, 44.4103 ] } },
{ "type": "Feature", "properties": { "INSEE": 12266002, "NOM": "SEGUR", "ALTITUDE": "0879 m", "TYPE": 1, "ETAT": "O", "LATITUDE": 44.2895, "LONGITUDE": 2.8203 }, "geometry": { "type": "Point", "coordinates": [ 2.8203, 44.2895 ] } },
{ "type": "Feature", "properties": { "INSEE": 12298001, "NOM": "VILLECOMTAL", "ALTITUDE": "0318 m", "TYPE": 2, "ETAT": "O", "LATITUDE": 44.5306, "LONGITUDE": 2.572 }, "geometry": { "type": "Point", "coordinates": [ 2.572, 44.5306 ] } },
{ "type": "Feature", "properties": { "INSEE": 12300004, "NOM": "VILLEFRANCHE-DE-ROUERGUE", "ALTITUDE": "0330 m", "TYPE": 1, "ETAT": "O", "LATITUDE": 44.3718, "LONGITUDE": 2.0236 }, "geometry": { "type": "Point", "coordinates": [ 2.0236, 44.3718 ] } },
{ "type": "Feature", "properties": { "INSEE": 13001009, "NOM": "AIX EN PROVENCE", "ALTITUDE": "0173 m", "TYPE": 1, "ETAT": "O", "LATITUDE": 43.5295, "LONGITUDE": 5.4245 }, "geometry": { "type": "Point", "coordinates": [ 5.4245, 43.5295 ] } },
{ "type": "Feature", "properties": { "INSEE": 13004003, "NOM": "ARLES", "ALTITUDE": "0001 m", "TYPE": 1, "ETAT": "O", "LATITUDE": 43.51, "LONGITUDE": 4.6938 }, "geometry": { "type": "Point", "coordinates": [ 4.6938, 43.51 ] } },
{ "type": "Feature", "properties": { "INSEE": 13005003, "NOM": "AUBAGNE", "ALTITUDE": "0130 m", "TYPE": 2, "ETAT": "O", "LATITUDE": 43.3073, "LONGITUDE": 5.6011 }, "geometry": { "type": "Point", "coordinates": [ 5.6011, 43.3073 ] } },
{ "type": "Feature", "properties": { "INSEE": 13022003, "NOM": "CASSIS", "ALTITUDE": "0212 m", "TYPE": 1, "ETAT": "O", "LATITUDE": 43.2221, "LONGITUDE": 5.5031 }, "geometry": { "type": "Point", "coordinates": [ 5.5031, 43.2221 ] } },
{ "type": "Feature", "properties": { "INSEE": 13028001, "NOM": "BEC DE L AIGLE", "ALTITUDE": "0316 m", "TYPE": 2, "ETAT": "O", "LATITUDE": 43.1746, "LONGITUDE": 5.5741 }, "geometry": { "type": "Point", "coordinates": [ 5.5741, 43.1746 ] } },
{ "type": "Feature", "properties": { "INSEE": 13030001, "NOM": "CUGES-LES-PINS", "ALTITUDE": "0184 m", "TYPE": 2, "ETAT": "O", "LATITUDE": 43.274, "LONGITUDE": 5.7001 }, "geometry": { "type": "Point", "coordinates": [ 5.7001, 43.274 ] } },
{ "type": "Feature", "properties": { "INSEE": 13031002, "NOM": "LA DESTROUSSE_SAPC", "ALTITUDE": "0201 m", "TYPE": 2, "ETAT": "O", "LATITUDE": 43.3866, "LONGITUDE": 5.601 }, "geometry": { "type": "Point", "coordinates": [ 5.601, 43.3866 ] } },
{ "type": "Feature", "properties": { "INSEE": 13036003, "NOM": "EYRAGUES", "ALTITUDE": "0017 m", "TYPE": 2, "ETAT": "O", "LATITUDE": 43.8471, "LONGITUDE": 4.8348 }, "geometry": { "type": "Point", "coordinates": [ 4.8348, 43.8471 ] } },
{ "type": "Feature", "properties": { "INSEE": 13047001, "NOM": "ISTRES", "ALTITUDE": "0023 m", "TYPE": 0, "ETAT": "O", "LATITUDE": 43.5226, "LONGITUDE": 4.9275 }, "geometry": { "type": "Point", "coordinates": [ 4.9275, 43.5226 ] } },
{ "type": "Feature", "properties": { "INSEE": 13054001, "NOM": "MARIGNANE", "ALTITUDE": "0009 m", "TYPE": 0, "ETAT": "O", "LATITUDE": 43.4376, "LONGITUDE": 5.216 }, "geometry": { "type": "Point", "coordinates": [ 5.216, 43.4376 ] } },
{ "type": "Feature", "properties": { "INSEE": 13055001, "NOM": "MARSEILLE-OBS", "ALTITUDE": "0075 m", "TYPE": 2, "ETAT": "O", "LATITUDE": 43.3035, "LONGITUDE": 5.39 }, "geometry": { "type": "Point", "coordinates": [ 5.39, 43.3035 ] } },
{ "type": "Feature", "properties": { "INSEE": 13055029, "NOM": "MARSEILLE", "ALTITUDE": "0192 m", "TYPE": 1, "ETAT": "O", "LATITUDE": 43.3106, "LONGITUDE": 5.4791 }, "geometry": { "type": "Point", "coordinates": [ 5.4791, 43.3106 ] } },
{ "type": "Feature", "properties": { "INSEE": 13062002, "NOM": "MIMET", "ALTITUDE": "0416 m", "TYPE": 2, "ETAT": "O", "LATITUDE": 43.4185, "LONGITUDE": 5.4996 }, "geometry": { "type": "Point", "coordinates": [ 5.4996, 43.4185 ] } },
{ "type": "Feature", "properties": { "INSEE": 13074003, "NOM": "PEYROLLES EN PROVENCE", "ALTITUDE": "0217 m", "TYPE": 1, "ETAT": "O", "LATITUDE": 43.6568, "LONGITUDE": 5.6066 }, "geometry": { "type": "Point", "coordinates": [ 5.6066, 43.6568 ] } },
{ "type": "Feature", "properties": { "INSEE": 13091002, "NOM": "ST CANNAT", "ALTITUDE": "0249 m", "TYPE": 2, "ETAT": "O", "LATITUDE": 43.6045, "LONGITUDE": 5.3176 }, "geometry": { "type": "Point", "coordinates": [ 5.3176, 43.6045 ] } },
{ "type": "Feature", "properties": { "INSEE": 13092001, "NOM": "ST CHAMAS", "ALTITUDE": "0010 m", "TYPE": 2, "ETAT": "O", "LATITUDE": 43.5495, "LONGITUDE": 5.0395 }, "geometry": { "type": "Point", "coordinates": [ 5.0395, 43.5495 ] } },
{ "type": "Feature", "properties": { "INSEE": 13103001, "NOM": "SALON DE PROVENCE", "ALTITUDE": "0058 m", "TYPE": 0, "ETAT": "O", "LATITUDE": 43.6128, "LONGITUDE": 5.108 }, "geometry": { "type": "Point", "coordinates": [ 5.108, 43.6128 ] } },
{ "type": "Feature", "properties": { "INSEE": 13108004, "NOM": "TARASCON", "ALTITUDE": "0015 m", "TYPE": 1, "ETAT": "O", "LATITUDE": 43.8298, "LONGITUDE": 4.6401 }, "geometry": { "type": "Point", "coordinates": [ 4.6401, 43.8298 ] } },
{ "type": "Feature", "properties": { "INSEE": 13110003, "NOM": "TRETS", "ALTITUDE": "0264 m", "TYPE": 2, "ETAT": "O", "LATITUDE": 43.4453, "LONGITUDE": 5.6986 }, "geometry": { "type": "Point", "coordinates": [ 5.6986, 43.4453 ] } },
{ "type": "Feature", "properties": { "INSEE": 13111002, "NOM": "VAUVENARGUES", "ALTITUDE": "0565 m", "TYPE": 2, "ETAT": "O", "LATITUDE": 43.551, "LONGITUDE": 5.68 }, "geometry": { "type": "Point", "coordinates": [ 5.68, 43.551 ] } },
{ "type": "Feature", "properties": { "INSEE": 14047002, "NOM": "BAYEUX", "ALTITUDE": "0060 m", "TYPE": 2, "ETAT": "O", "LATITUDE": 49.2748, "LONGITUDE": -0.7123 }, "geometry": { "type": "Point", "coordinates": [ -0.7123, 49.2748 ] } },
{ "type": "Feature", "properties": { "INSEE": 14066001, "NOM": "BERNIERES", "ALTITUDE": "0002 m", "TYPE": 1, "ETAT": "O", "LATITUDE": 49.334, "LONGITUDE": -0.4306 }, "geometry": { "type": "Point", "coordinates": [ -0.4306, 49.334 ] } },
{ "type": "Feature", "properties": { "INSEE": 14096001, "NOM": "BREMOY", "ALTITUDE": "0240 m", "TYPE": 2, "ETAT": "O", "LATITUDE": 48.9911, "LONGITUDE": -0.7808 }, "geometry": { "type": "Point", "coordinates": [ -0.7808, 48.9911 ] } },
{ "type": "Feature", "properties": { "INSEE": 14137001, "NOM": "CAEN-CARPIQUET", "ALTITUDE": "0067 m", "TYPE": 0, "ETAT": "O", "LATITUDE": 49.18, "LONGITUDE": -0.4561 }, "geometry": { "type": "Point", "coordinates": [ -0.4561, 49.18 ] } },
{ "type": "Feature", "properties": { "INSEE": 14216001, "NOM": "DAMBLAINVILLE", "ALTITUDE": "0155 m", "TYPE": 1, "ETAT": "O", "LATITUDE": 48.928, "LONGITUDE": -0.1486 }, "geometry": { "type": "Point", "coordinates": [ -0.1486, 48.928 ] } },
{ "type": "Feature", "properties": { "INSEE": 14229001, "NOM": "DOZULE", "ALTITUDE": "0029 m", "TYPE": 2, "ETAT": "O", "LATITUDE": 49.2316, "LONGITUDE": -0.0475 }, "geometry": { "type": "Point", "coordinates": [ -0.0475, 49.2316 ] } },
{ "type": "Feature", "properties": { "INSEE": 14239001, "NOM": "ENGLESQUEVILLE", "ALTITUDE": "0038 m", "TYPE": 2, "ETAT": "O", "LATITUDE": 49.3875, "LONGITUDE": -0.9566 }, "geometry": { "type": "Point", "coordinates": [ -0.9566, 49.3875 ] } },
{ "type": "Feature", "properties": { "INSEE": 14296001, "NOM": "LEGAST_SAPC", "ALTITUDE": "0336 m", "TYPE": 2, "ETAT": "O", "LATITUDE": 48.7946, "LONGITUDE": -1.0371 }, "geometry": { "type": "Point", "coordinates": [ -1.0371, 48.7946 ] } },
{ "type": "Feature", "properties": { "INSEE": 14357002, "NOM": "LASSY_SAPC", "ALTITUDE": "0223 m", "TYPE": 2, "ETAT": "O", "LATITUDE": 48.9265, "LONGITUDE": -0.6925 }, "geometry": { "type": "Point", "coordinates": [ -0.6925, 48.9265 ] } },
{ "type": "Feature", "properties": { "INSEE": 14366002, "NOM": "LISIEUX_SAPC", "ALTITUDE": "0062 m", "TYPE": 2, "ETAT": "O", "LATITUDE": 49.165, "LONGITUDE": 0.227 }, "geometry": { "type": "Point", "coordinates": [ 0.227, 49.165 ] } },
{ "type": "Feature", "properties": { "INSEE": 14372001, "NOM": "LIVRY", "ALTITUDE": "0184 m", "TYPE": 1, "ETAT": "O", "LATITUDE": 49.1015, "LONGITUDE": -0.7651 }, "geometry": { "type": "Point", "coordinates": [ -0.7651, 49.1015 ] } },
{ "type": "Feature", "properties": { "INSEE": 14446001, "NOM": "MONTIGNY", "ALTITUDE": "0151 m", "TYPE": 2, "ETAT": "O", "LATITUDE": 49.0458, "LONGITUDE": -0.5301 }, "geometry": { "type": "Point", "coordinates": [ -0.5301, 49.0458 ] } },
{ "type": "Feature", "properties": { "INSEE": 14501002, "NOM": "PIERREFITTE CIN_SAPC", "ALTITUDE": "0185 m", "TYPE": 2, "ETAT": "O", "LATITUDE": 48.891, "LONGITUDE": -0.3858 }, "geometry": { "type": "Point", "coordinates": [ -0.3858, 48.891 ] } },
{ "type": "Feature", "properties": { "INSEE": 14578001, "NOM": "ST GATIEN DES B", "ALTITUDE": "0139 m", "TYPE": 0, "ETAT": "O", "LATITUDE": 49.3645, "LONGITUDE": 0.167 }, "geometry": { "type": "Point", "coordinates": [ 0.167, 49.3645 ] } },
{ "type": "Feature", "properties": { "INSEE": 14624001, "NOM": "L OUDON LIEURY_SAPC", "ALTITUDE": "0052 m", "TYPE": 2, "ETAT": "O", "LATITUDE": 48.9895, "LONGITUDE": -0.0091 }, "geometry": { "type": "Point", "coordinates": [ -0.0091, 48.9895 ] } },
{ "type": "Feature", "properties": { "INSEE": 14634001, "NOM": "SAINT MICHEL DE", "ALTITUDE": "0140 m", "TYPE": 2, "ETAT": "O", "LATITUDE": 49.0068, "LONGITUDE": 0.1295 }, "geometry": { "type": "Point", "coordinates": [ 0.1295, 49.0068 ] } },
{ "type": "Feature", "properties": { "INSEE": 14659001, "NOM": "ST SYLVAIN_SAPC", "ALTITUDE": "0062 m", "TYPE": 2, "ETAT": "O", "LATITUDE": 49.06, "LONGITUDE": -0.2343 }, "geometry": { "type": "Point", "coordinates": [ -0.2343, 49.06 ] } },
{ "type": "Feature", "properties": { "INSEE": 14762004, "NOM": "VIRE HIPPODROME", "ALTITUDE": "0100 m", "TYPE": 1, "ETAT": "O", "LATITUDE": 48.8508, "LONGITUDE": -0.899 }, "geometry": { "type": "Point", "coordinates": [ -0.899, 48.8508 ] } },
{ "type": "Feature", "properties": { "INSEE": 15001003, "NOM": "ALLANCHE", "ALTITUDE": "1010 m", "TYPE": 2, "ETAT": "O", "LATITUDE": 45.232, "LONGITUDE": 2.9376 }, "geometry": { "type": "Point", "coordinates": [ 2.9376, 45.232 ] } },
{ "type": "Feature", "properties": { "INSEE": 15014001, "NOM": "AURILLAC - VILL", "ALTITUDE": "0707 m", "TYPE": 2, "ETAT": "O", "LATITUDE": 44.9358, "LONGITUDE": 2.4383 }, "geometry": { "type": "Point", "coordinates": [ 2.4383, 44.9358 ] } },
{ "type": "Feature", "properties": { "INSEE": 15014004, "NOM": "AURILLAC", "ALTITUDE": "0632 m", "TYPE": 0, "ETAT": "O", "LATITUDE": 44.8915, "LONGITUDE": 2.4191 }, "geometry": { "type": "Point", "coordinates": [ 2.4191, 44.8915 ] } },
{ "type": "Feature", "properties": { "INSEE": 15025001, "NOM": "PRAT DE BOUC", "ALTITUDE": "1405 m", "TYPE": 1, "ETAT": "O", "LATITUDE": 45.0525, "LONGITUDE": 2.792 }, "geometry": { "type": "Point", "coordinates": [ 2.792, 45.0525 ] } },
{ "type": "Feature", "properties": { "INSEE": 15050001, "NOM": "LE CLAUX", "ALTITUDE": "1033 m", "TYPE": 2, "ETAT": "O", "LATITUDE": 45.1725, "LONGITUDE": 2.7105 }, "geometry": { "type": "Point", "coordinates": [ 2.7105, 45.1725 ] } },
{ "type": "Feature", "properties": { "INSEE": 15053001, "NOM": "COLTINES", "ALTITUDE": "0979 m", "TYPE": 1, "ETAT": "O", "LATITUDE": 45.0746, "LONGITUDE": 2.9906 }, "geometry": { "type": "Point", "coordinates": [ 2.9906, 45.0746 ] } },
{ "type": "Feature", "properties": { "INSEE": 15060002, "NOM": "DEUX-VERGES", "ALTITUDE": "1080 m", "TYPE": 1, "ETAT": "O", "LATITUDE": 44.8015, "LONGITUDE": 3.0126 }, "geometry": { "type": "Point", "coordinates": [ 3.0126, 44.8015 ] } },
{ "type": "Feature", "properties": { "INSEE": 15068001, "NOM": "FAVEROLLES", "ALTITUDE": "0905 m", "TYPE": 2, "ETAT": "O", "LATITUDE": 44.9435, "LONGITUDE": 3.149 }, "geometry": { "type": "Point", "coordinates": [ 3.149, 44.9435 ] } },
{ "type": "Feature", "properties": { "INSEE": 15085001, "NOM": "LABROUSSE", "ALTITUDE": "0800 m", "TYPE": 2, "ETAT": "O", "LATITUDE": 44.8553, "LONGITUDE": 2.5406 }, "geometry": { "type": "Point", "coordinates": [ 2.5406, 44.8553 ] } },
{ "type": "Feature", "properties": { "INSEE": 15101004, "NOM": "LE LIORAN_SAPC", "ALTITUDE": "1238 m", "TYPE": 2, "ETAT": "O", "LATITUDE": 45.0821, "LONGITUDE": 2.751 }, "geometry": { "type": "Point", "coordinates": [ 2.751, 45.0821 ] } },
{ "type": "Feature", "properties": { "INSEE": 15114002, "NOM": "MARCENAT", "ALTITUDE": "1075 m", "TYPE": 1, "ETAT": "O", "LATITUDE": 45.3026, "LONGITUDE": 2.833 }, "geometry": { "type": "Point", "coordinates": [ 2.833, 45.3026 ] } },
{ "type": "Feature", "properties": { "INSEE": 15118002, "NOM": "MARMANHAC", "ALTITUDE": "0644 m", "TYPE": 2, "ETAT": "O", "LATITUDE": 45.0028, "LONGITUDE": 2.4745 }, "geometry": { "type": "Point", "coordinates": [ 2.4745, 45.0028 ] } },
{ "type": "Feature", "properties": { "INSEE": 15119001, "NOM": "MASSIAC", "ALTITUDE": "0533 m", "TYPE": 2, "ETAT": "O", "LATITUDE": 45.2633, "LONGITUDE": 3.1978 }, "geometry": { "type": "Point", "coordinates": [ 3.1978, 45.2633 ] } },
{ "type": "Feature", "properties": { "INSEE": 15120005, "NOM": "MAURIAC", "ALTITUDE": "0674 m", "TYPE": 1, "ETAT": "O", "LATITUDE": 45.2221, "LONGITUDE": 2.2931 }, "geometry": { "type": "Point", "coordinates": [ 2.2931, 45.2221 ] } },
{ "type": "Feature", "properties": { "INSEE": 15122002, "NOM": "MAURS", "ALTITUDE": "0480 m", "TYPE": 1, "ETAT": "O", "LATITUDE": 44.7341, "LONGITUDE": 2.166 }, "geometry": { "type": "Point", "coordinates": [ 2.166, 44.7341 ] } },
{ "type": "Feature", "properties": { "INSEE": 15138001, "NOM": "MURAT", "ALTITUDE": "0904 m", "TYPE": 2, "ETAT": "O", "LATITUDE": 45.1095, "LONGITUDE": 2.8621 }, "geometry": { "type": "Point", "coordinates": [ 2.8621, 45.1095 ] } },
{ "type": "Feature", "properties": { "INSEE": 15162003, "NOM": "RIOM-MONTAGNES", "ALTITUDE": "0837 m", "TYPE": 2, "ETAT": "O", "LATITUDE": 45.2801, "LONGITUDE": 2.6646 }, "geometry": { "type": "Point", "coordinates": [ 2.6646, 45.2801 ] } },
{ "type": "Feature", "properties": { "INSEE": 15187006, "NOM": "ST FLOUR", "ALTITUDE": "0909 m", "TYPE": 2, "ETAT": "O", "LATITUDE": 45.0243, "LONGITUDE": 3.0673 }, "geometry": { "type": "Point", "coordinates": [ 3.0673, 45.0243 ] } },
{ "type": "Feature", "properties": { "INSEE": 15191001, "NOM": "ST ILLIDE", "ALTITUDE": "0635 m", "TYPE": 2, "ETAT": "O", "LATITUDE": 45.064, "LONGITUDE": 2.3038 }, "geometry": { "type": "Point", "coordinates": [ 2.3038, 45.064 ] } },
{ "type": "Feature", "properties": { "INSEE": 15196001, "NOM": "ST MAMET", "ALTITUDE": "0740 m", "TYPE": 2, "ETAT": "O", "LATITUDE": 44.8588, "LONGITUDE": 2.3106 }, "geometry": { "type": "Point", "coordinates": [ 2.3106, 44.8588 ] } },
{ "type": "Feature", "properties": { "INSEE": 15207002, "NOM": "ST- PONCY_SAPC", "ALTITUDE": "0805 m", "TYPE": 2, "ETAT": "O", "LATITUDE": 45.1783, "LONGITUDE": 3.1741 }, "geometry": { "type": "Point", "coordinates": [ 3.1741, 45.1783 ] } },
{ "type": "Feature", "properties": { "INSEE": 15226001, "NOM": "SENEZERGUES", "ALTITUDE": "0530 m", "TYPE": 2, "ETAT": "O", "LATITUDE": 44.704, "LONGITUDE": 2.4281 }, "geometry": { "type": "Point", "coordinates": [ 2.4281, 44.704 ] } },
{ "type": "Feature", "properties": { "INSEE": 15235002, "NOM": "LES TERNES", "ALTITUDE": "1007 m", "TYPE": 2, "ETAT": "O", "LATITUDE": 44.9928, "LONGITUDE": 3.0018 }, "geometry": { "type": "Point", "coordinates": [ 3.0018, 44.9928 ] } },
{ "type": "Feature", "properties": { "INSEE": 15258004, "NOM": "VIC SUR CERE", "ALTITUDE": "0657 m", "TYPE": 2, "ETAT": "O", "LATITUDE": 44.9658, "LONGITUDE": 2.6121 }, "geometry": { "type": "Point", "coordinates": [ 2.6121, 44.9658 ] } },
{ "type": "Feature", "properties": { "INSEE": 16028001, "NOM": "BARBEZIEUX", "ALTITUDE": "0072 m", "TYPE": 2, "ETAT": "O", "LATITUDE": 45.481, "LONGITUDE": -0.1486 }, "geometry": { "type": "Point", "coordinates": [ -0.1486, 45.481 ] } },
{ "type": "Feature", "properties": { "INSEE": 16078001, "NOM": "ANGOULEME - BRIE - CHAMPNIERS", "ALTITUDE": "0124 m", "TYPE": 2, "ETAT": "O", "LATITUDE": 45.728, "LONGITUDE": 0.2206 }, "geometry": { "type": "Point", "coordinates": [ 0.2206, 45.728 ] } },
{ "type": "Feature", "properties": { "INSEE": 16089001, "NOM": "COGNAC", "ALTITUDE": "0030 m", "TYPE": 0, "ETAT": "O", "LATITUDE": 45.665, "LONGITUDE": -0.3158 }, "geometry": { "type": "Point", "coordinates": [ -0.3158, 45.665 ] } },
{ "type": "Feature", "properties": { "INSEE": 16113001, "NOM": "LA COURONNE", "ALTITUDE": "0058 m", "TYPE": 1, "ETAT": "O", "LATITUDE": 45.6278, "LONGITUDE": 0.0998 }, "geometry": { "type": "Point", "coordinates": [ 0.0998, 45.6278 ] } },
{ "type": "Feature", "properties": { "INSEE": 16193001, "NOM": "LOUZAC ST ANDRE", "ALTITUDE": "0051 m", "TYPE": 2, "ETAT": "O", "LATITUDE": 45.7358, "LONGITUDE": -0.3818 }, "geometry": { "type": "Point", "coordinates": [ -0.3818, 45.7358 ] } },
{ "type": "Feature", "properties": { "INSEE": 16225001, "NOM": "MONTEMBOEUF", "ALTITUDE": "0247 m", "TYPE": 1, "ETAT": "O", "LATITUDE": 45.7871, "LONGITUDE": 0.543 }, "geometry": { "type": "Point", "coordinates": [ 0.543, 45.7871 ] } },
{ "type": "Feature", "properties": { "INSEE": 16256001, "NOM": "PASSIRAC", "ALTITUDE": "0114 m", "TYPE": 2, "ETAT": "O", "LATITUDE": 45.334, "LONGITUDE": -0.0786 }, "geometry": { "type": "Point", "coordinates": [ -0.0786, 45.334 ] } },
{ "type": "Feature", "properties": { "INSEE": 16279001, "NOM": "RIOUX MARTIN", "ALTITUDE": "0081 m", "TYPE": 1, "ETAT": "O", "LATITUDE": 45.262, "LONGITUDE": 0.0033 }, "geometry": { "type": "Point", "coordinates": [ 0.0033, 45.262 ] } },
{ "type": "Feature", "properties": { "INSEE": 16363001, "NOM": "SAULGOND_SAPC", "ALTITUDE": "0228 m", "TYPE": 2, "ETAT": "O", "LATITUDE": 45.9563, "LONGITUDE": 0.7816 }, "geometry": { "type": "Point", "coordinates": [ 0.7816, 45.9563 ] } },
{ "type": "Feature", "properties": { "INSEE": 16366001, "NOM": "SEGONZAC_SAPC", "ALTITUDE": "0062 m", "TYPE": 2, "ETAT": "O", "LATITUDE": 45.6145, "LONGITUDE": -0.2235 }, "geometry": { "type": "Point", "coordinates": [ -0.2235, 45.6145 ] } },
{ "type": "Feature", "properties": { "INSEE": 16390001, "NOM": "TUSSON", "ALTITUDE": "0088 m", "TYPE": 1, "ETAT": "O", "LATITUDE": 45.949, "LONGITUDE": 0.0621 }, "geometry": { "type": "Point", "coordinates": [ 0.0621, 45.949 ] } },
{ "type": "Feature", "properties": { "INSEE": 16403001, "NOM": "LE VIEUX CERIER_SAPC", "ALTITUDE": "0162 m", "TYPE": 2, "ETAT": "O", "LATITUDE": 45.9675, "LONGITUDE": 0.442 }, "geometry": { "type": "Point", "coordinates": [ 0.442, 45.9675 ] } },
{ "type": "Feature", "properties": { "INSEE": 17093002, "NOM": "CHATEAU D'OLERON", "ALTITUDE": "0003 m", "TYPE": 2, "ETAT": "O", "LATITUDE": 45.8621, "LONGITUDE": -1.2043 }, "geometry": { "type": "Point", "coordinates": [ -1.2043, 45.8621 ] } },
{ "type": "Feature", "properties": { "INSEE": 17111001, "NOM": "CLION", "ALTITUDE": "0035 m", "TYPE": 2, "ETAT": "O", "LATITUDE": 45.4768, "LONGITUDE": -0.5103 }, "geometry": { "type": "Point", "coordinates": [ -0.5103, 45.4768 ] } },
{ "type": "Feature", "properties": { "INSEE": 17218001, "NOM": "MARANS", "ALTITUDE": "0002 m", "TYPE": 2, "ETAT": "O", "LATITUDE": 46.3163, "LONGITUDE": -1.0121 }, "geometry": { "type": "Point", "coordinates": [ -1.0121, 46.3163 ] } },
{ "type": "Feature", "properties": { "INSEE": 17224001, "NOM": "MATHA", "ALTITUDE": "0038 m", "TYPE": 2, "ETAT": "O", "LATITUDE": 45.8586, "LONGITUDE": -0.3196 }, "geometry": { "type": "Point", "coordinates": [ -0.3196, 45.8586 ] } },
{ "type": "Feature", "properties": { "INSEE": 17243002, "NOM": "MONTLIEU_SAPC", "ALTITUDE": "0089 m", "TYPE": 2, "ETAT": "O", "LATITUDE": 45.2201, "LONGITUDE": -0.2918 }, "geometry": { "type": "Point", "coordinates": [ -0.2918, 45.2201 ] } },
{ "type": "Feature", "properties": { "INSEE": 17248001, "NOM": "MORTAGNE-SUR-GIRONDE_SAPC", "ALTITUDE": "0037 m", "TYPE": 2, "ETAT": "O", "LATITUDE": 45.4776, "LONGITUDE": -0.7898 }, "geometry": { "type": "Point", "coordinates": [ -0.7898, 45.4776 ] } },
{ "type": "Feature", "properties": { "INSEE": 17268002, "NOM": "NUAILLE SUR BOUTONNE", "ALTITUDE": "0036 m", "TYPE": 1, "ETAT": "O", "LATITUDE": 46.0198, "LONGITUDE": -0.4066 }, "geometry": { "type": "Point", "coordinates": [ -0.4066, 46.0198 ] } },
{ "type": "Feature", "properties": { "INSEE": 17300009, "NOM": "LA ROCHELLE-ILE DE RE", "ALTITUDE": "0020 m", "TYPE": 0, "ETAT": "O", "LATITUDE": 46.178, "LONGITUDE": -1.1931 }, "geometry": { "type": "Point", "coordinates": [ -1.1931, 46.178 ] } },
{ "type": "Feature", "properties": { "INSEE": 17306004, "NOM": "ROYAN-MEDIS", "ALTITUDE": "0012 m", "TYPE": 1, "ETAT": "O", "LATITUDE": 45.633, "LONGITUDE": -0.9746 }, "geometry": { "type": "Point", "coordinates": [ -0.9746, 45.633 ] } },
{ "type": "Feature", "properties": { "INSEE": 17308001, "NOM": "ST AGNANT", "ALTITUDE": "0018 m", "TYPE": 2, "ETAT": "O", "LATITUDE": 45.888, "LONGITUDE": -0.9846 }, "geometry": { "type": "Point", "coordinates": [ -0.9846, 45.888 ] } },
{ "type": "Feature", "properties": { "INSEE": 17318001, "NOM": "SAINT-CLEMENT DES BALEINES", "ALTITUDE": "0010 m", "TYPE": 2, "ETAT": "O", "LATITUDE": 46.243, "LONGITUDE": -1.5616 }, "geometry": { "type": "Point", "coordinates": [ -1.5616, 46.243 ] } },
{ "type": "Feature", "properties": { "INSEE": 17323001, "NOM": "CHASSIRON", "ALTITUDE": "0011 m", "TYPE": 0, "ETAT": "O", "LATITUDE": 46.0468, "LONGITUDE": -1.4116 }, "geometry": { "type": "Point", "coordinates": [ -1.4116, 46.0468 ] } },
{ "type": "Feature", "properties": { "INSEE": 17339002, "NOM": "ST GERMAIN DE LUSIGNAN", "ALTITUDE": "0071 m", "TYPE": 1, "ETAT": "O", "LATITUDE": 45.4583, "LONGITUDE": -0.4096 }, "geometry": { "type": "Point", "coordinates": [ -0.4096, 45.4583 ] } },
{ "type": "Feature", "properties": { "INSEE": 17415003, "NOM": "SAINTES", "ALTITUDE": "0038 m", "TYPE": 1, "ETAT": "O", "LATITUDE": 45.7611, "LONGITUDE": -0.652 }, "geometry": { "type": "Point", "coordinates": [ -0.652, 45.7611 ] } },
{ "type": "Feature", "properties": { "INSEE": 17477001, "NOM": "VILLIERS_SAPC", "ALTITUDE": "0106 m", "TYPE": 2, "ETAT": "O", "LATITUDE": 45.9875, "LONGITUDE": -0.152 }, "geometry": { "type": "Point", "coordinates": [ -0.152, 45.9875 ] } },
{ "type": "Feature", "properties": { "INSEE": 18003003, "NOM": "LES AIX-D'ANG.", "ALTITUDE": "0195 m", "TYPE": 2, "ETAT": "O", "LATITUDE": 47.2096, "LONGITUDE": 2.5523 }, "geometry": { "type": "Point", "coordinates": [ 2.5523, 47.2096 ] } },
{ "type": "Feature", "properties": { "INSEE": 18015003, "NOM": "AUBIGNY-SUR-NERE", "ALTITUDE": "0176 m", "TYPE": 1, "ETAT": "O", "LATITUDE": 47.4995, "LONGITUDE": 2.4273 }, "geometry": { "type": "Point", "coordinates": [ 2.4273, 47.4995 ] } },
{ "type": "Feature", "properties": { "INSEE": 18033001, "NOM": "BOURGES", "ALTITUDE": "0161 m", "TYPE": 0, "ETAT": "O", "LATITUDE": 47.0591, "LONGITUDE": 2.3598 }, "geometry": { "type": "Point", "coordinates": [ 2.3598, 47.0591 ] } },
{ "type": "Feature", "properties": { "INSEE": 18036001, "NOM": "BRINAY", "ALTITUDE": "0131 m", "TYPE": 2, "ETAT": "O", "LATITUDE": 47.1666, "LONGITUDE": 2.081 }, "geometry": { "type": "Point", "coordinates": [ 2.081, 47.1666 ] } },
{ "type": "Feature", "properties": { "INSEE": 18037001, "NOM": "BRINON", "ALTITUDE": "0133 m", "TYPE": 2, "ETAT": "O", "LATITUDE": 47.5645, "LONGITUDE": 2.2623 }, "geometry": { "type": "Point", "coordinates": [ 2.2623, 47.5645 ] } },
{ "type": "Feature", "properties": { "INSEE": 18047001, "NOM": "CHAPELLE-D'ANG_SAPC", "ALTITUDE": "0190 m", "TYPE": 2, "ETAT": "O", "LATITUDE": 47.3738, "LONGITUDE": 2.4266 }, "geometry": { "type": "Point", "coordinates": [ 2.4266, 47.3738 ] } },
{ "type": "Feature", "properties": { "INSEE": 18057003, "NOM": "CHATEAUMEILLANT", "ALTITUDE": "0243 m", "TYPE": 2, "ETAT": "O", "LATITUDE": 46.564, "LONGITUDE": 2.2175 }, "geometry": { "type": "Point", "coordinates": [ 2.2175, 46.564 ] } },
{ "type": "Feature", "properties": { "INSEE": 18087001, "NOM": "DUN", "ALTITUDE": "0160 m", "TYPE": 2, "ETAT": "O", "LATITUDE": 46.8783, "LONGITUDE": 2.5661 }, "geometry": { "type": "Point", "coordinates": [ 2.5661, 46.8783 ] } },
{ "type": "Feature", "properties": { "INSEE": 18089001, "NOM": "EPINEUIL", "ALTITUDE": "0228 m", "TYPE": 2, "ETAT": "O", "LATITUDE": 46.5633, "LONGITUDE": 2.5198 }, "geometry": { "type": "Point", "coordinates": [ 2.5198, 46.5633 ] } },
{ "type": "Feature", "properties": { "INSEE": 18092001, "NOM": "AVORD", "ALTITUDE": "0175 m", "TYPE": 0, "ETAT": "O", "LATITUDE": 47.0521, "LONGITUDE": 2.6421 }, "geometry": { "type": "Point", "coordinates": [ 2.6421, 47.0521 ] } },
{ "type": "Feature", "properties": { "INSEE": 18109002, "NOM": "HENRICHEMONT", "ALTITUDE": "0377 m", "TYPE": 2, "ETAT": "O", "LATITUDE": 47.2858, "LONGITUDE": 2.5791 }, "geometry": { "type": "Point", "coordinates": [ 2.5791, 47.2858 ] } },
{ "type": "Feature", "properties": { "INSEE": 18125004, "NOM": "LERE", "ALTITUDE": "0139 m", "TYPE": 1, "ETAT": "O", "LATITUDE": 47.4578, "LONGITUDE": 2.8931 }, "geometry": { "type": "Point", "coordinates": [ 2.8931, 47.4578 ] } },
{ "type": "Feature", "properties": { "INSEE": 18172003, "NOM": "ORVAL RAD", "ALTITUDE": "0165 m", "TYPE": 1, "ETAT": "O", "LATITUDE": 46.731, "LONGITUDE": 2.4673 }, "geometry": { "type": "Point", "coordinates": [ 2.4673, 46.731 ] } },
{ "type": "Feature", "properties": { "INSEE": 18175003, "NOM": "OUROUER", "ALTITUDE": "0221 m", "TYPE": 1, "ETAT": "O", "LATITUDE": 46.9253, "LONGITUDE": 2.8033 }, "geometry": { "type": "Point", "coordinates": [ 2.8033, 46.9253 ] } },
{ "type": "Feature", "properties": { "INSEE": 18187004, "NOM": "PREVERANGES", "ALTITUDE": "0462 m", "TYPE": 1, "ETAT": "O", "LATITUDE": 46.4253, "LONGITUDE": 2.2365 }, "geometry": { "type": "Point", "coordinates": [ 2.2365, 46.4253 ] } },
{ "type": "Feature", "properties": { "INSEE": 18207003, "NOM": "ST-FLORENT/CHER", "ALTITUDE": "0146 m", "TYPE": 2, "ETAT": "O", "LATITUDE": 46.9893, "LONGITUDE": 2.2486 }, "geometry": { "type": "Point", "coordinates": [ 2.2486, 46.9893 ] } },
{ "type": "Feature", "properties": { "INSEE": 18223003, "NOM": "ST-MARTIN-D'A.", "ALTITUDE": "0172 m", "TYPE": 2, "ETAT": "O", "LATITUDE": 47.2006, "LONGITUDE": 2.4168 }, "geometry": { "type": "Point", "coordinates": [ 2.4168, 47.2006 ] } },
{ "type": "Feature", "properties": { "INSEE": 18231001, "NOM": "ST-PIERRE", "ALTITUDE": "0174 m", "TYPE": 2, "ETAT": "O", "LATITUDE": 46.729, "LONGITUDE": 2.6316 }, "geometry": { "type": "Point", "coordinates": [ 2.6316, 46.729 ] } },
{ "type": "Feature", "properties": { "INSEE": 18242001, "NOM": "SANCOINS", "ALTITUDE": "0203 m", "TYPE": 2, "ETAT": "O", "LATITUDE": 46.8313, "LONGITUDE": 2.9265 }, "geometry": { "type": "Point", "coordinates": [ 2.9265, 46.8313 ] } },
{ "type": "Feature", "properties": { "INSEE": 18279001, "NOM": "VIERZON - VEVES", "ALTITUDE": "0098 m", "TYPE": 2, "ETAT": "O", "LATITUDE": 47.2195, "LONGITUDE": 2.0141 }, "geometry": { "type": "Point", "coordinates": [ 2.0141, 47.2195 ] } },
{ "type": "Feature", "properties": { "INSEE": 19010001, "NOM": "ARGENTAT", "ALTITUDE": "0190 m", "TYPE": 1, "ETAT": "O", "LATITUDE": 45.1013, "LONGITUDE": 1.9375 }, "geometry": { "type": "Point", "coordinates": [ 1.9375, 45.1013 ] } },
{ "type": "Feature", "properties": { "INSEE": 19016001, "NOM": "BAR", "ALTITUDE": "0269 m", "TYPE": 2, "ETAT": "O", "LATITUDE": 45.3445, "LONGITUDE": 1.8238 }, "geometry": { "type": "Point", "coordinates": [ 1.8238, 45.3445 ] } },
{ "type": "Feature", "properties": { "INSEE": 19031008, "NOM": "BRIVE", "ALTITUDE": "0115 m", "TYPE": 0, "ETAT": "O", "LATITUDE": 45.1466, "LONGITUDE": 1.4733 }, "geometry": { "type": "Point", "coordinates": [ 1.4733, 45.1466 ] } },
{ "type": "Feature", "properties": { "INSEE": 19033001, "NOM": "BUGEAT", "ALTITUDE": "0694 m", "TYPE": 2, "ETAT": "O", "LATITUDE": 45.6026, "LONGITUDE": 1.9303 }, "geometry": { "type": "Point", "coordinates": [ 1.9303, 45.6026 ] } },
{ "type": "Feature", "properties": { "INSEE": 19034001, "NOM": "CAMPS", "ALTITUDE": "0519 m", "TYPE": 2, "ETAT": "O", "LATITUDE": 44.9836, "LONGITUDE": 1.9883 }, "geometry": { "type": "Point", "coordinates": [ 1.9883, 44.9836 ] } },
{ "type": "Feature", "properties": { "INSEE": 19073006, "NOM": "EGLETONS", "ALTITUDE": "0610 m", "TYPE": 1, "ETAT": "O", "LATITUDE": 45.3988, "LONGITUDE": 2.0591 }, "geometry": { "type": "Point", "coordinates": [ 2.0591, 45.3988 ] } },
{ "type": "Feature", "properties": { "INSEE": 19121002, "NOM": "LUBERSAC", "ALTITUDE": "0390 m", "TYPE": 2, "ETAT": "O", "LATITUDE": 45.4103, "LONGITUDE": 1.4111 }, "geometry": { "type": "Point", "coordinates": [ 1.4111, 45.4103 ] } },
{ "type": "Feature", "properties": { "INSEE": 19125001, "NOM": "MARCILLAC", "ALTITUDE": "0598 m", "TYPE": 2, "ETAT": "O", "LATITUDE": 45.2835, "LONGITUDE": 2.0398 }, "geometry": { "type": "Point", "coordinates": [ 2.0398, 45.2835 ] } },
{ "type": "Feature", "properties": { "INSEE": 19136002, "NOM": "MEYMAC", "ALTITUDE": "0670 m", "TYPE": 2, "ETAT": "O", "LATITUDE": 45.5343, "LONGITUDE": 2.1543 }, "geometry": { "type": "Point", "coordinates": [ 2.1543, 45.5343 ] } },
{ "type": "Feature", "properties": { "INSEE": 19139001, "NOM": "MILLEVACHES", "ALTITUDE": "0915 m", "TYPE": 2, "ETAT": "O", "LATITUDE": 45.6426, "LONGITUDE": 2.0955 }, "geometry": { "type": "Point", "coordinates": [ 2.0955, 45.6426 ] } },
{ "type": "Feature", "properties": { "INSEE": 19147001, "NOM": "BRIVE-SOUILLAC", "ALTITUDE": "0295 m", "TYPE": 0, "ETAT": "O", "LATITUDE": 45.0363, "LONGITUDE": 1.4916 }, "geometry": { "type": "Point", "coordinates": [ 1.4916, 45.0363 ] } },
{ "type": "Feature", "properties": { "INSEE": 19164001, "NOM": "PEYRELEVADE", "ALTITUDE": "0827 m", "TYPE": 1, "ETAT": "O", "LATITUDE": 45.701, "LONGITUDE": 2.0586 }, "geometry": { "type": "Point", "coordinates": [ 2.0586, 45.701 ] } },
{ "type": "Feature", "properties": { "INSEE": 19201001, "NOM": "USSEL-THALAMY", "ALTITUDE": "0740 m", "TYPE": 1, "ETAT": "O", "LATITUDE": 45.5373, "LONGITUDE": 2.42 }, "geometry": { "type": "Point", "coordinates": [ 2.42, 45.5373 ] } },
{ "type": "Feature", "properties": { "INSEE": 19237001, "NOM": "ST-PRIVAT", "ALTITUDE": "0585 m", "TYPE": 2, "ETAT": "O", "LATITUDE": 45.139, "LONGITUDE": 2.096 }, "geometry": { "type": "Point", "coordinates": [ 2.096, 45.139 ] } },
{ "type": "Feature", "properties": { "INSEE": 19264001, "NOM": "SOURSAC", "ALTITUDE": "0528 m", "TYPE": 2, "ETAT": "O", "LATITUDE": 45.249, "LONGITUDE": 2.2128 }, "geometry": { "type": "Point", "coordinates": [ 2.2128, 45.249 ] } },
{ "type": "Feature", "properties": { "INSEE": 19272001, "NOM": "TULLE", "ALTITUDE": "0235 m", "TYPE": 2, "ETAT": "O", "LATITUDE": 45.2425, "LONGITUDE": 1.7403 }, "geometry": { "type": "Point", "coordinates": [ 1.7403, 45.2425 ] } },
{ "type": "Feature", "properties": { "INSEE": 19275001, "NOM": "USSEL-LAMARTINE", "ALTITUDE": "0654 m", "TYPE": 2, "ETAT": "O", "LATITUDE": 45.5588, "LONGITUDE": 2.3213 }, "geometry": { "type": "Point", "coordinates": [ 2.3213, 45.5588 ] } },
{ "type": "Feature", "properties": { "INSEE": 19276006, "NOM": "UZERCHE", "ALTITUDE": "0422 m", "TYPE": 1, "ETAT": "O", "LATITUDE": 45.3963, "LONGITUDE": 1.5681 }, "geometry": { "type": "Point", "coordinates": [ 1.5681, 45.3963 ] } },
{ "type": "Feature", "properties": { "INSEE": 19288004, "NOM": "VOUTEZAC", "ALTITUDE": "0124 m", "TYPE": 2, "ETAT": "O", "LATITUDE": 45.2798, "LONGITUDE": 1.416 }, "geometry": { "type": "Point", "coordinates": [ 1.416, 45.2798 ] } },
{ "type": "Feature", "properties": { "INSEE": 20004002, "NOM": "AJACCIO", "ALTITUDE": "0005 m", "TYPE": 0, "ETAT": "O", "LATITUDE": 41.918, "LONGITUDE": 8.7926 }, "geometry": { "type": "Point", "coordinates": [ 8.7926, 41.918 ] } },
{ "type": "Feature", "properties": { "INSEE": 20004003, "NOM": "AJACCIO-PARATA", "ALTITUDE": "0124 m", "TYPE": 2, "ETAT": "O", "LATITUDE": 41.9083, "LONGITUDE": 8.6181 }, "geometry": { "type": "Point", "coordinates": [ 8.6181, 41.9083 ] } },
{ "type": "Feature", "properties": { "INSEE": 20004014, "NOM": "AJACCIO-MILELLI_SAPC", "ALTITUDE": "0086 m", "TYPE": 2, "ETAT": "O", "LATITUDE": 41.9385, "LONGITUDE": 8.7208 }, "geometry": { "type": "Point", "coordinates": [ 8.7208, 41.9385 ] } },
{ "type": "Feature", "properties": { "INSEE": 20023005, "NOM": "ASCO_SAPC", "ALTITUDE": "1400 m", "TYPE": 2, "ETAT": "O", "LATITUDE": 42.4038, "LONGITUDE": 8.9226 }, "geometry": { "type": "Point", "coordinates": [ 8.9226, 42.4038 ] } },
{ "type": "Feature", "properties": { "INSEE": 20029003, "NOM": "BARBAGGIO_SAPC", "ALTITUDE": "0572 m", "TYPE": 2, "ETAT": "O", "LATITUDE": 42.6798, "LONGITUDE": 9.3893 }, "geometry": { "type": "Point", "coordinates": [ 9.3893, 42.6798 ] } },
{ "type": "Feature", "properties": { "INSEE": 20033015, "NOM": "BASTIA_SAPC", "ALTITUDE": "0026 m", "TYPE": 2, "ETAT": "O", "LATITUDE": 42.7043, "LONGITUDE": 9.4448 }, "geometry": { "type": "Point", "coordinates": [ 9.4448, 42.7043 ] } },
{ "type": "Feature", "properties": { "INSEE": 20040001, "NOM": "BOCOGNANO-GARE", "ALTITUDE": "0660 m", "TYPE": 2, "ETAT": "O", "LATITUDE": 42.0801, "LONGITUDE": 9.0525 }, "geometry": { "type": "Point", "coordinates": [ 9.0525, 42.0801 ] } },
{ "type": "Feature", "properties": { "INSEE": 20040004, "NOM": "BOCOGNANO", "ALTITUDE": "1019 m", "TYPE": 2, "ETAT": "O", "LATITUDE": 42.1041, "LONGITUDE": 9.1033 }, "geometry": { "type": "Point", "coordinates": [ 9.1033, 42.1041 ] } },
{ "type": "Feature", "properties": { "INSEE": 20041001, "NOM": "CAP PERTUSATO", "ALTITUDE": "0107 m", "TYPE": 0, "ETAT": "O", "LATITUDE": 41.3748, "LONGITUDE": 9.1783 }, "geometry": { "type": "Point", "coordinates": [ 9.1783, 41.3748 ] } },
{ "type": "Feature", "properties": { "INSEE": 20046002, "NOM": "CAGNANO", "ALTITUDE": "0278 m", "TYPE": 2, "ETAT": "O", "LATITUDE": 42.8866, "LONGITUDE": 9.4395 }, "geometry": { "type": "Point", "coordinates": [ 9.4395, 42.8866 ] } },
{ "type": "Feature", "properties": { "INSEE": 20047006, "NOM": "CALACUCCIA", "ALTITUDE": "0811 m", "TYPE": 2, "ETAT": "O", "LATITUDE": 42.3315, "LONGITUDE": 9.0215 }, "geometry": { "type": "Point", "coordinates": [ 9.0215, 42.3315 ] } },
{ "type": "Feature", "properties": { "INSEE": 20050001, "NOM": "CALVI", "ALTITUDE": "0057 m", "TYPE": 0, "ETAT": "O", "LATITUDE": 42.5295, "LONGITUDE": 8.7915 }, "geometry": { "type": "Point", "coordinates": [ 8.7915, 42.5295 ] } },
{ "type": "Feature", "properties": { "INSEE": 20054002, "NOM": "CAMPILE_SAPC", "ALTITUDE": "0499 m", "TYPE": 2, "ETAT": "O", "LATITUDE": 42.4946, "LONGITUDE": 9.353 }, "geometry": { "type": "Point", "coordinates": [ 9.353, 42.4946 ] } },
{ "type": "Feature", "properties": { "INSEE": 20083001, "NOM": "CASTIRLA", "ALTITUDE": "0376 m", "TYPE": 2, "ETAT": "O", "LATITUDE": 42.3801, "LONGITUDE": 9.1341 }, "geometry": { "type": "Point", "coordinates": [ 9.1341, 42.3801 ] } },
{ "type": "Feature", "properties": { "INSEE": 20092001, "NOM": "CONCA", "ALTITUDE": "0253 m", "TYPE": 2, "ETAT": "O", "LATITUDE": 41.717, "LONGITUDE": 9.3485 }, "geometry": { "type": "Point", "coordinates": [ 9.3485, 41.717 ] } },
{ "type": "Feature", "properties": { "INSEE": 20093002, "NOM": "ILE ROUSSE", "ALTITUDE": "0142 m", "TYPE": 0, "ETAT": "O", "LATITUDE": 42.6331, "LONGITUDE": 8.9226 }, "geometry": { "type": "Point", "coordinates": [ 8.9226, 42.6331 ] } },
{ "type": "Feature", "properties": { "INSEE": 20096008, "NOM": "CORTE", "ALTITUDE": "0350 m", "TYPE": 1, "ETAT": "O", "LATITUDE": 42.2885, "LONGITUDE": 9.1931 }, "geometry": { "type": "Point", "coordinates": [ 9.1931, 42.2885 ] } },
{ "type": "Feature", "properties": { "INSEE": 20096009, "NOM": "RESTONICA_SAPC", "ALTITUDE": "1372 m", "TYPE": 2, "ETAT": "O", "LATITUDE": 42.2296, "LONGITUDE": 9.0313 }, "geometry": { "type": "Point", "coordinates": [ 9.0313, 42.2296 ] } },
{ "type": "Feature", "properties": { "INSEE": 20107001, "NOM": "CAP CORSE", "ALTITUDE": "0072 m", "TYPE": 0, "ETAT": "O", "LATITUDE": 43.0038, "LONGITUDE": 9.3595 }, "geometry": { "type": "Point", "coordinates": [ 9.3595, 43.0038 ] } },
{ "type": "Feature", "properties": { "INSEE": 20108002, "NOM": "EVISA-ONF", "ALTITUDE": "1030 m", "TYPE": 2, "ETAT": "O", "LATITUDE": 42.2633, "LONGITUDE": 8.8386 }, "geometry": { "type": "Point", "coordinates": [ 8.8386, 42.2633 ] } },
{ "type": "Feature", "properties": { "INSEE": 20114002, "NOM": "FIGARI", "ALTITUDE": "0020 m", "TYPE": 0, "ETAT": "O", "LATITUDE": 41.5051, "LONGITUDE": 9.1036 }, "geometry": { "type": "Point", "coordinates": [ 9.1036, 41.5051 ] } },
{ "type": "Feature", "properties": { "INSEE": 20126001, "NOM": "GIUNCAGGIO_SAPC", "ALTITUDE": "0685 m", "TYPE": 2, "ETAT": "O", "LATITUDE": 42.2165, "LONGITUDE": 9.3693 }, "geometry": { "type": "Point", "coordinates": [ 9.3693, 42.2165 ] } },
{ "type": "Feature", "properties": { "INSEE": 20135002, "NOM": "ISOLACCIO DI FIUMORBO", "ALTITUDE": "0198 m", "TYPE": 2, "ETAT": "O", "LATITUDE": 41.9923, "LONGITUDE": 9.305 }, "geometry": { "type": "Point", "coordinates": [ 9.305, 41.9923 ] } },
{ "type": "Feature", "properties": { "INSEE": 20142001, "NOM": "LEVIE", "ALTITUDE": "0571 m", "TYPE": 2, "ETAT": "O", "LATITUDE": 41.7035, "LONGITUDE": 9.1258 }, "geometry": { "type": "Point", "coordinates": [ 9.1258, 41.7035 ] } },
{ "type": "Feature", "properties": { "INSEE": 20148001, "NOM": "BASTIA", "ALTITUDE": "0010 m", "TYPE": 0, "ETAT": "O", "LATITUDE": 42.5406, "LONGITUDE": 9.4851 }, "geometry": { "type": "Point", "coordinates": [ 9.4851, 42.5406 ] } },
{ "type": "Feature", "properties": { "INSEE": 20154001, "NOM": "MARIGNANA", "ALTITUDE": "0515 m", "TYPE": 2, "ETAT": "O", "LATITUDE": 42.1888, "LONGITUDE": 8.6553 }, "geometry": { "type": "Point", "coordinates": [ 8.6553, 42.1888 ] } },
{ "type": "Feature", "properties": { "INSEE": 20160001, "NOM": "MOCA-CROCE", "ALTITUDE": "0951 m", "TYPE": 1, "ETAT": "O", "LATITUDE": 41.7616, "LONGITUDE": 9.0165 }, "geometry": { "type": "Point", "coordinates": [ 9.0165, 41.7616 ] } },
{ "type": "Feature", "properties": { "INSEE": 20169007, "NOM": "PONTE-LECCIA", "ALTITUDE": "0240 m", "TYPE": 2, "ETAT": "O", "LATITUDE": 42.4726, "LONGITUDE": 9.1998 }, "geometry": { "type": "Point", "coordinates": [ 9.1998, 42.4726 ] } },
{ "type": "Feature", "properties": { "INSEE": 20185003, "NOM": "OLETTA", "ALTITUDE": "0075 m", "TYPE": 1, "ETAT": "O", "LATITUDE": 42.6323, "LONGITUDE": 9.3205 }, "geometry": { "type": "Point", "coordinates": [ 9.3205, 42.6323 ] } },
{ "type": "Feature", "properties": { "INSEE": 20190002, "NOM": "OLMI-CAPPELLA", "ALTITUDE": "0844 m", "TYPE": 2, "ETAT": "O", "LATITUDE": 42.5295, "LONGITUDE": 9.0165 }, "geometry": { "type": "Point", "coordinates": [ 9.0165, 42.5295 ] } },
{ "type": "Feature", "properties": { "INSEE": 20209003, "NOM": "PERI_SAPC", "ALTITUDE": "0433 m", "TYPE": 2, "ETAT": "O", "LATITUDE": 42.0031, "LONGITUDE": 8.9056 }, "geometry": { "type": "Point", "coordinates": [ 8.9056, 42.0031 ] } },
{ "type": "Feature", "properties": { "INSEE": 20211001, "NOM": "PETRETO BICCHISANO", "ALTITUDE": "0450 m", "TYPE": 2, "ETAT": "O", "LATITUDE": 41.7851, "LONGITUDE": 8.9791 }, "geometry": { "type": "Point", "coordinates": [ 8.9791, 41.7851 ] } },
{ "type": "Feature", "properties": { "INSEE": 20223001, "NOM": "PIETRALBA", "ALTITUDE": "0510 m", "TYPE": 2, "ETAT": "O", "LATITUDE": 42.541, "LONGITUDE": 9.172 }, "geometry": { "type": "Point", "coordinates": [ 9.172, 42.541 ] } },
{ "type": "Feature", "properties": { "INSEE": 20232002, "NOM": "PILA-CANALE", "ALTITUDE": "0407 m", "TYPE": 2, "ETAT": "O", "LATITUDE": 41.8145, "LONGITUDE": 8.9036 }, "geometry": { "type": "Point", "coordinates": [ 8.9036, 41.8145 ] } },
{ "type": "Feature", "properties": { "INSEE": 20247001, "NOM": "LA CHIAPPA", "ALTITUDE": "0057 m", "TYPE": 2, "ETAT": "O", "LATITUDE": 41.5948, "LONGITUDE": 9.3631 }, "geometry": { "type": "Point", "coordinates": [ 9.3631, 41.5948 ] } },
{ "type": "Feature", "properties": { "INSEE": 20249003, "NOM": "PROPRIANO", "ALTITUDE": "0034 m", "TYPE": 2, "ETAT": "O", "LATITUDE": 41.6781, "LONGITUDE": 8.915 }, "geometry": { "type": "Point", "coordinates": [ 8.915, 41.6781 ] } },
{ "type": "Feature", "properties": { "INSEE": 20254006, "NOM": "QUENZA", "ALTITUDE": "0932 m", "TYPE": 2, "ETAT": "O", "LATITUDE": 41.7776, "LONGITUDE": 9.1428 }, "geometry": { "type": "Point", "coordinates": [ 9.1428, 41.7776 ] } },